{"city": "Las Vegas", "state": "NV", "longitude": -115.3043961, "name": "Chianti Cafe", "rating": 3.5, "cuisine": "italian", "latitude": 36.1924136, "id": "_SM8UKIwBNbmj1r629ipoQ", "full_address": "1916 Village Center Cir\nSummerlin\nLas Vegas, NV 89134"}
{"city": "Las Vegas", "state": "NV", "longitude": -115.191711, "name": "Fatburger", "rating": 3.0, "cuisine": "fast food", "latitude": 36.197365, "id": "l6QcUE8XXLrVH6Ydm4GSNw", "full_address": "Texas Station Casino\n2101 Texas Star Ln\nLas Vegas, NV 89032"}
{"city": "Las Vegas", "state": "NV", "longitude": -115.125401, "name": "Pizza Hut", "rating": 4.0, "cuisine": "pizza", "latitude": 36.17311, "id": "AgtFQVxo-PGQVsOdY6Nvdg", "full_address": "10525 Eastern Ave\nSte 130\nLas Vegas, NV 89101"}
{"city": "Las Vegas", "state": "NV", "longitude": -115.1186131, "name": "Fado Irish Pub", "rating": 3.5, "cuisine": "irish", "latitude": 36.0174194, "id": "muqFM9Hoamh_fGL4MPeZqg", "full_address": "9470 Eastern Ave\nSoutheast\nLas Vegas, NV 89123"}
{"city": "Las Vegas", "state": "NV", "longitude": -115.197904, "name": "Cafe Noodle & Chinese Barbeque", "rating": 3.5, "cuisine": "chinese", "latitude": 36.125908, "id": "AFDFOs2GaIyUArGyEUDQzQ", "full_address": "4355 Spring Mountain Rd\nChinatown\nLas Vegas, NV 89102"}
{"city": "Las Vegas", "state": "NV", "longitude": -115.193971, "name": "Pho Kim Long", "rating": 3.5, "cuisine": "chinese", "latitude": 36.126177, "id": "FV16IeXJp2W6pnghTz2FAw", "full_address": "4029 Spring Mountain Rd\nChinatown\nLas Vegas, NV 89102"}
{"city": "Las Vegas", "state": "NV", "longitude": -115.207747, "name": "Oiga, Mire, Vea Colombian Cuisine", "rating": 3.5, "cuisine": "latin american", "latitude": 36.142935, "id": "cvJDHk1ho0DxaF26etcr8Q", "full_address": "2580 S Decatur Blvd\nWestside\nLas Vegas, NV 89102"}
{"city": "Las Vegas", "state": "NV", "longitude": -115.187809, "name": "Courtyard Deli", "rating": 5.0, "cuisine": "sandwiches", "latitude": 36.145672, "id": "10UcN8MF1kQiyTJAfHKvfQ", "full_address": "3360 W Sahara Ave\nSte 110\nWestside\nLas Vegas, NV 89102"}
{"city": "Las Vegas", "state": "NV", "longitude": -115.206002, "name": "Subway", "rating": 2.5, "cuisine": "sandwiches", "latitude": 36.130335, "id": "R5e2XWtpa_CA77MIXEyCTg", "full_address": "4810 W Desert Inn Rd\nWestside\nLas Vegas, NV 89102"}
{"city": "Las Vegas", "state": "NV", "longitude": -115.1969938, "name": "Pho Vietnam Restaurant", "rating": 3.0, "cuisine": "vietnamese", "latitude": 36.1263784, "id": "CoJivG0wxNIBXyOF7MNqSQ", "full_address": "4215 Spring Mountain Rd\nChinatown\nLas Vegas, NV 89102"}
{"city": "Las Vegas", "state": "NV", "longitude": -115.2080092, "name": "Einstein Bros", "rating": 3.5, "cuisine": "sandwiches", "latitude": 36.1430045, "id": "pCobXgTy6DIfBaT4pjlq0w", "full_address": "2570 S Decatur Blvd\nWestside\nLas Vegas, NV 89102"}
{"city": "Las Vegas", "state": "NV", "longitude": -115.197655, "name": "Sesame House", "rating": 4.0, "cuisine": "sandwiches", "latitude": 36.1263667, "id": "qbXEkNp310Mc0CIs0YJdSg", "full_address": "4255 Spring Mountain Rd\nChinatown\nLas Vegas, NV 89102"}
{"city": "Las Vegas", "state": "NV", "longitude": -115.1908392, "name": "China Joe's", "rating": 3.0, "cuisine": "chinese", "latitude": 36.1445245, "id": "V8id7mkt3nJYOD_HthEn1w", "full_address": "3886 W Sahara Ave\nWestside\nLas Vegas, NV 89102"}
{"city": "Las Vegas", "state": "NV", "longitude": -115.192405700684, "name": "Las Pupusas Restaurant", "rating": 4.0, "cuisine": "mexican", "latitude": 36.1319122314453, "id": "JgpKLikZPbbXYPtILy3-wg", "full_address": "3111 S Valley View Blvd\nWestside\nLas Vegas, NV 89102"}
{"city": "Las Vegas", "state": "NV", "longitude": -115.1747246, "name": "Romano's Macaroni Grill", "rating": 3.0, "cuisine": "italian", "latitude": 36.1444845, "id": "9-O8qKGQQCYXdBlj4iv7bw", "full_address": "2400 W. Sahara Ave.\nLas Vegas, NV 89102"}
{"city": "Las Vegas", "state": "NV", "longitude": -115.175625, "name": "Landry's Seafood", "rating": 3.0, "cuisine": "seafood", "latitude": 36.144997, "id": "PsOvURXqpy8iZX2J8y429A", "full_address": "2610 W. Sahara Ave.\nLas Vegas, NV 89102"}
{"city": "Las Vegas", "state": "NV", "longitude": -115.2062973, "name": "Pho So 1", "rating": 3.5, "cuisine": "vietnamese", "latitude": 36.1262669, "id": "Yq8LiVymGA7vBpGCQuDfRw", "full_address": "4745 Spring Mountain Rd\nChinatown\nLas Vegas, NV 89102"}
{"city": "Las Vegas", "state": "NV", "longitude": -115.197904, "name": "Pho Nhu  Y", "rating": 2.5, "cuisine": "vietnamese", "latitude": 36.125908, "id": "nzQJqTrcazg23EjdaHgqDg", "full_address": "4355 Spring Mountain Rd\nChinatown\nLas Vegas, NV 89102"}
{"city": "Las Vegas", "state": "NV", "longitude": -115.193426683545, "name": "Tofu Hut", "rating": 3.5, "cuisine": "barbeque", "latitude": 36.1264888197184, "id": "UKKz4HdQC0aH9j5lLi4u8Q", "full_address": "3920 Spring Mountain Rd\nChinatown\nLas Vegas, NV 89102"}
{"city": "Las Vegas", "state": "NV", "longitude": -115.1905468, "name": "Tacos El Burrito Loco", "rating": 3.5, "cuisine": "mexican", "latitude": 36.1463479, "id": "A2aVN_Yw3xDz4x7gGtmYog", "full_address": "2401 S Valley View Blvd\nWestside\nLas Vegas, NV 89102"}
{"city": "Las Vegas", "state": "NV", "longitude": -115.2098129, "name": "Dotty's #7", "rating": 3.5, "cuisine": "", "latitude": 36.1486584, "id": "euGwFsKJAkkO7kdgOkT9qg", "full_address": "2101 S Decatur Blvd\nWestside\nLas Vegas, NV 89102"}
{"city": "Las Vegas", "state": "NV", "longitude": -115.1892, "name": "PT's", "rating": 4.0, "cuisine": "american (new)", "latitude": 36.1472, "id": "IALHPP1RDtpXV9KnUM0EQQ", "full_address": "4604 W Sahara Ave\nSuite #10\nWestside\nLas Vegas, NV 89102"}
{"city": "Las Vegas", "state": "NV", "longitude": -115.20472, "name": "Samosa Factory", "rating": 4.0, "cuisine": "vegan", "latitude": 36.145118, "id": "LM71VvmoAWDD5z8h7XoVig", "full_address": "4604 W Sahara Ave\nSte 6\nWestside\nLas Vegas, NV 89102"}
{"city": "Las Vegas", "state": "NV", "longitude": -115.207382, "name": "Lone Star Steakhouse & Saloon", "rating": 1.5, "cuisine": "steakhouses", "latitude": 36.153466, "id": "k5h1lqeM70OM3JJdrYH5IQ", "full_address": "1611 S Decatur Blvd\nWestside\nLas Vegas, NV 89102"}
{"city": "Las Vegas", "state": "NV", "longitude": -115.206888, "name": "Rice To-Go", "rating": 2.5, "cuisine": "chinese", "latitude": 36.126543, "id": "pNqHRWlrbh71zbPZNd7_2g", "full_address": "4840 Spring Mountain Rd\nSte 1\nChinatown\nLas Vegas, NV 89102"}
{"city": "Las Vegas", "state": "NV", "longitude": -115.194408, "name": "Wienerschnitzel", "rating": 1.0, "cuisine": "fast food", "latitude": 36.14402, "id": "idvjjh3yCDu7Hupzl89iQw", "full_address": "4001 W Sahara Ave\nWestside\nLas Vegas, NV 89102"}
{"city": "Las Vegas", "state": "NV", "longitude": -115.1907265, "name": "Hawaiian Hale", "rating": 4.0, "cuisine": "hawaiian", "latitude": 36.1457714, "id": "Gv3ivlNN44OJbb1KxVAPRQ", "full_address": "2439 S Valley View Blvd\nWestside\nLas Vegas, NV 89102"}
{"city": "Las Vegas", "state": "NV", "longitude": -115.200935, "name": "Kfc", "rating": 1.5, "cuisine": "fast food", "latitude": 36.1447963, "id": "4jxe81SmrVLp_XDUIpXYMg", "full_address": "4420 W Sahara Ave\nWestside\nLas Vegas, NV 89102"}
{"city": "Las Vegas", "state": "NV", "longitude": -115.184268951416, "name": "Pizza Hut", "rating": 2.5, "cuisine": "pizza", "latitude": 36.1439743670324, "id": "UVZ5auVZrbvgJ0VbWW_P8Q", "full_address": "3001 W. Sahara Ave.\nWestside\nLas Vegas, NV 89102"}
{"city": "Las Vegas", "state": "NV", "longitude": -115.1720445, "name": "Jimmy John's", "rating": 4.0, "cuisine": "sandwiches", "latitude": 36.1590135, "id": "SvS58LlrEMHjSwJmpJNKGA", "full_address": "2204 W Charleston Blvd\nDowntown\nLas Vegas, NV 89102"}
{"city": "Las Vegas", "state": "NV", "longitude": -115.2084303, "name": "Aloha Kitchen & Bar", "rating": 3.5, "cuisine": "hawaiian", "latitude": 36.1423109, "id": "RfR5yc4j9coIPBuxRsOW8Q", "full_address": "2605 S Decatur Blvd\nSte 109\nWestside\nLas Vegas, NV 89102"}
{"city": "Las Vegas", "state": "NV", "longitude": -115.208770751953, "name": "The Triple Play", "rating": 4.5, "cuisine": "american (traditional)", "latitude": 36.1510276794434, "id": "yY5y9PjyPWd-8Pl1XkkBVA", "full_address": "1875 S Decatur Blvd\nWestside\nLas Vegas, NV 89102"}
{"city": "Las Vegas", "state": "NV", "longitude": -115.197076499462, "name": "Chinatown Express Restaurant", "rating": 3.5, "cuisine": "chinese", "latitude": 36.1263305693865, "id": "Vkm6ZWlPhIioFk6xiypSjg", "full_address": "4255 Spring Mountain Rd\nChinatown\nLas Vegas, NV 89102"}
{"city": "Las Vegas", "state": "NV", "longitude": -115.208505, "name": "Red Robin", "rating": 3.0, "cuisine": "american (traditional)", "latitude": 36.143114, "id": "4qHd6e7kAL9dszYrQUkjLg", "full_address": "2575 S Decatur Blvd\nWestside\nLas Vegas, NV 89102"}
{"city": "Las Vegas", "state": "NV", "longitude": -115.2076648, "name": "Church's Chicken", "rating": 3.5, "cuisine": "chicken wings", "latitude": 36.1264833, "id": "7sw8yneJ0H2CUf-4sBKP0w", "full_address": "4880 Spring Mountain Road\nChinatown\nLas Vegas, NV 89102"}
{"city": "Las Vegas", "state": "NV", "longitude": -115.191245, "name": "Tacos Mexico", "rating": 3.5, "cuisine": "mexican", "latitude": 36.144737, "id": "-NXDZfqwfZ9OWba180HqFw", "full_address": "3820 W Sahara Ave\nWestside\nLas Vegas, NV 89102"}
{"city": "Las Vegas", "state": "NV", "longitude": -115.198702, "name": "Epoy's Filipino Fast Food", "rating": 3.0, "cuisine": "filipino", "latitude": 36.144051, "id": "oMgp0SW0fwyxT-bj4SEL_g", "full_address": "4251 W Sahara Ave\nWestside\nLas Vegas, NV 89102"}
{"city": "Las Vegas", "state": "NV", "longitude": -115.15464, "name": "India Oven", "rating": 3.5, "cuisine": "indian", "latitude": 36.1443942, "id": "cZxez9tUb9hqV3KXq5YPAQ", "full_address": "2218 Paradise Rd\nThe Strip\nLas Vegas, NV 89104"}
{"city": "Las Vegas", "state": "NV", "longitude": -115.171989798546, "name": "Nozomi Japanese Restaurant", "rating": 3.5, "cuisine": "japanese", "latitude": 36.159728153816204, "id": "ocZ8pz-8iSz5avdPKnoalA", "full_address": "2202 W Charleston Blvd\nSte 11\nDowntown\nLas Vegas, NV 89102"}
{"city": "Las Vegas", "state": "NV", "longitude": -115.1795317, "name": "Coffee Pub", "rating": 4.0, "cuisine": "breakfast & brunch", "latitude": 36.1450464, "id": "fUdr6QMsrBGOYpxS6Dcjdg", "full_address": "2800 W Sahara Ave\nSte 2A\nWestside\nLas Vegas, NV 89102"}
{"city": "Las Vegas", "state": "NV", "longitude": -115.1744492, "name": "The Broiler", "rating": 3.5, "cuisine": "steakhouses", "latitude": 36.1441893, "id": "GLWix4aqJoD4HyvKqLdP8A", "full_address": "Palace Station Hotel & Casino\n2421 W Sahara Ave\nLas Vegas, NV 89102"}
{"city": "Las Vegas", "state": "NV", "longitude": -115.197906494141, "name": "Ichiza", "rating": 4.0, "cuisine": "japanese", "latitude": 36.1259078979492, "id": "4UVhuOLaMm2-34SrW8y-ag", "full_address": "4355 Spring Mountain Rd\nChinatown\nLas Vegas, NV 89102"}
{"city": "Las Vegas", "state": "NV", "longitude": -115.190277, "name": "Gianna's Pizza", "rating": 4.0, "cuisine": "pizza", "latitude": 36.145733, "id": "PTbikfcSHR1dTze0EJQMlA", "full_address": "3620 W Sahara Ave\nSte W4\nWestside\nLas Vegas, NV 89102"}
{"city": "Las Vegas", "state": "NV", "longitude": -115.1841592, "name": "Boomer's Bar", "rating": 3.5, "cuisine": "american (traditional)", "latitude": 36.1336005, "id": "t0PNqBiITGf_AY6uNsaD5g", "full_address": "3200 W Sirius Ave\nWestside\nLas Vegas, NV 89102"}
{"city": "Las Vegas", "state": "NV", "longitude": -115.1969938, "name": "Sam Woo BBQ Restaurant", "rating": 2.0, "cuisine": "chinese", "latitude": 36.1263784, "id": "1ldDbggHHgPlj3k0SpBTKQ", "full_address": "4215 Spring Mountain Rd\nSte B101\nChinatown\nLas Vegas, NV 89102"}
{"city": "Las Vegas", "state": "NV", "longitude": -115.165013, "name": "Wendy's", "rating": 1.5, "cuisine": "fast food", "latitude": 36.158457, "id": "MR3-Ll-hoUGZMA-B1MTgGQ", "full_address": "1725 W Charleston Blvd\nDowntown\nLas Vegas, NV 89102"}
{"city": "Las Vegas", "state": "NV", "longitude": -115.2965319, "name": "Sushi House Manda", "rating": 5.0, "cuisine": "japanese", "latitude": 36.102015, "id": "0EZ3j0POS4FC5zYjUDU4Cg", "full_address": "4790 S Ft. Apache Rd\nSpring Valley\nLas Vegas, NV 89147"}
{"city": "Las Vegas", "state": "NV", "longitude": -115.197904, "name": "Korean Garden BBQ House", "rating": 3.0, "cuisine": "barbeque", "latitude": 36.125908, "id": "v8TQwyxEj4or2Yng6y0S7A", "full_address": "4355 Spring Mountain Road\nChinatown\nLas Vegas, NV 89102"}
{"city": "Las Vegas", "state": "NV", "longitude": -115.161508, "name": "Golden Steer", "rating": 3.5, "cuisine": "steakhouses", "latitude": 36.14411, "id": "YZuHOgbKiP3dN4_ROOUyDQ", "full_address": "308 W Sahara Ave\nThe Strip\nLas Vegas, NV 89102"}
{"city": "Las Vegas", "state": "NV", "longitude": -115.1619301, "name": "Carl's Jr Restaurants", "rating": 3.5, "cuisine": "fast food", "latitude": 36.1590604, "id": "sewf0n2bOKcKTvy2Xo1H8g", "full_address": "1522 W Charleston Blvd\nDowntown\nLas Vegas, NV 89102"}
{"city": "Las Vegas", "state": "NV", "longitude": -115.1711308, "name": "Omelet House", "rating": 4.0, "cuisine": "american (traditional)", "latitude": 36.1590433, "id": "eoDEx1GGQA0CBDhy2ql_Kw", "full_address": "2160 W Charleston Blvd\nDowntown\nLas Vegas, NV 89102"}
{"city": "Las Vegas", "state": "NV", "longitude": -115.1614606, "name": "Capriotti's", "rating": 4.5, "cuisine": "sandwiches", "latitude": 36.1441292, "id": "Yin_BwfzTOdC8VY9ZD4K6w", "full_address": "322 W. Sahara\nThe Strip\nLas Vegas, NV 89102"}
{"city": "Las Vegas", "state": "NV", "longitude": -115.1875972, "name": "Montesano's Italian Deli", "rating": 5.0, "cuisine": "italian", "latitude": 36.1443115, "id": "JBMfMZS_Oac8_ktOULqTAg", "full_address": "3441 W Sahara Ave Ste B2\nWestside\nLas Vegas, NV 89102"}
{"city": "Las Vegas", "state": "NV", "longitude": -115.2041571, "name": "Panda Express", "rating": 3.5, "cuisine": "chinese", "latitude": 36.1447295, "id": "mjgs24NO7oZvwafPKN5dDw", "full_address": "4590 W Sahara Ave\nWestside\nLas Vegas, NV 89102"}
{"city": "Las Vegas", "state": "NV", "longitude": -115.208505, "name": "Habib's Persian Cuisine", "rating": 3.0, "cuisine": "middle eastern", "latitude": 36.143114, "id": "QkVSaXjg5475VD3sZixCZQ", "full_address": "2575 S Decatur Blvd\nWestside\nLas Vegas, NV 89102"}
{"city": "Las Vegas", "state": "NV", "longitude": -115.2076644, "name": "Food Express Chinese Restaurant", "rating": 4.0, "cuisine": "chinese", "latitude": 36.1497263, "id": "pj0vl4DIlDCChe80Df40Yw", "full_address": "2003 S Decatur Blvd\nSte B\nWestside\nLas Vegas, NV 89102"}
{"city": "Las Vegas", "state": "NV", "longitude": -115.2026403, "name": "China Star", "rating": 2.5, "cuisine": "chinese", "latitude": 36.1590061, "id": "MI0OfnmlfkUh2xPhT1lQSg", "full_address": "4595 W Charleston Blvd\nWestside\nLas Vegas, NV 89102"}
{"city": "Las Vegas", "state": "NV", "longitude": -115.2076154, "name": "El Pollo Loco", "rating": 3.0, "cuisine": "mexican", "latitude": 36.1450429, "id": "FkXmvdpccuMFfNI6zgmXEA", "full_address": "2401 S Decatur Blvd\nWestside\nLas Vegas, NV 89102"}
{"city": "Las Vegas", "state": "NV", "longitude": -115.2026919, "name": "Best Burger", "rating": 3.5, "cuisine": "burgers", "latitude": 36.1445909, "id": "FM1Jlw53TB-lxqlXIdxrQg", "full_address": "4604 W Sahara Ave\nWestside\nLas Vegas, NV 89102"}
{"city": "Las Vegas", "state": "NV", "longitude": -115.2026919, "name": "Roberto's Taco Shop", "rating": 3.5, "cuisine": "mexican", "latitude": 36.1445909, "id": "Bs7FcmlfHfCq2lf-FUKLCw", "full_address": "4604 W Sahara Ave\nSte 7\nWestside\nLas Vegas, NV 89102"}
{"city": "Las Vegas", "state": "NV", "longitude": -115.206941, "name": "Chili's Grill & Bar", "rating": 4.0, "cuisine": "tex-mex", "latitude": 36.143476, "id": "FZ_ne5hPqmeEesVZphq_3Q", "full_address": "2520 S Decatur Blvd\nWestside\nLas Vegas, NV 89102"}
{"city": "Las Vegas", "state": "NV", "longitude": -115.1938661, "name": "Island Style", "rating": 4.5, "cuisine": "hawaiian", "latitude": 36.1440209, "id": "xxOQ7h6s3InV8o8DOVHlMA", "full_address": "3909 W Sahara Ave\nSte 1\nWestside\nLas Vegas, NV 89102"}
{"city": "Las Vegas", "state": "NV", "longitude": -115.2098129, "name": "Chapala's Mexican Restaurant", "rating": 3.0, "cuisine": "mexican", "latitude": 36.1486584, "id": "UsZ9ZvDh8Fo5mZeKs4w9mg", "full_address": "2101 S Decatur Blvd\nWestside\nLas Vegas, NV 89102"}
{"city": "Las Vegas", "state": "NV", "longitude": -115.203735, "name": "El Steak Burrito", "rating": 4.0, "cuisine": "mexican", "latitude": 36.1263007, "id": "ChnL7kA9lbcMVmmCvnecZQ", "full_address": "4590 Spring Mountain Rd\nChinatown\nLas Vegas, NV 89102"}
{"city": "Las Vegas", "state": "NV", "longitude": -115.193618, "name": "Diamond China Restaurant", "rating": 3.5, "cuisine": "chinese", "latitude": 36.144017, "id": "V3S6RpKgYc5XCLjgI9JeeQ", "full_address": "3909 W Sahara Ave\nWestside\nLas Vegas, NV 89102"}
{"city": "Las Vegas", "state": "NV", "longitude": -115.193147, "name": "Royal Thai Restaurant", "rating": 4.5, "cuisine": "thai", "latitude": 36.144013, "id": "dR-Zz3l3ws-P08dI6F8Zew", "full_address": "3839 W Sahara Ave\nWestside\nLas Vegas, NV 89102"}
{"city": "Las Vegas", "state": "NV", "longitude": -115.1908457, "name": "Cafe Verdi", "rating": 3.0, "cuisine": "italian", "latitude": 36.1316793, "id": "9JZzT2BMalNseFn11x5EIQ", "full_address": "3111 S Valley View Blvd\nWestside\nLas Vegas, NV 89102"}
{"city": "Las Vegas", "state": "NV", "longitude": -115.1972121, "name": "Osaka Japanese Bistro", "rating": 4.0, "cuisine": "japanese", "latitude": 36.1443404, "id": "pPJyi5kggzTibTxSPuRd0g", "full_address": "4205 W Sahara Ave\nWestside\nLas Vegas, NV 89102"}
{"city": "Las Vegas", "state": "NV", "longitude": -115.2080383, "name": "Jimmy John's Gourmet Sandwiches", "rating": 4.0, "cuisine": "sandwiches", "latitude": 36.1439467, "id": "SWTc_3L9Y4SKyNs_OhqeIg", "full_address": "2530 S Decatur Blvd\nWestside\nLas Vegas, NV 89102"}
{"city": "Las Vegas", "state": "NV", "longitude": -115.208553, "name": "Chopstix Express", "rating": 2.5, "cuisine": "chinese", "latitude": 36.142482, "id": "CHhYILNXTM3DIhmnpXlB3Q", "full_address": "2625 S Decatur Blvd\nWestside\nLas Vegas, NV 89102"}
{"city": "Las Vegas", "state": "NV", "longitude": -115.196836155822, "name": "Skinny Dugan's Pub", "rating": 4.0, "cuisine": "american (new)", "latitude": 36.1588614521949, "id": "a_qTdBz81-tgsd3UGmaT5Q", "full_address": "4127 W Charleston Blvd\nWestside\nLas Vegas, NV 89102"}
{"city": "Las Vegas", "state": "NV", "longitude": -115.2072046, "name": "Blueberry Hill Family Restaurant", "rating": 3.5, "cuisine": "diners", "latitude": 36.1564508, "id": "SfrHdU4NCkYWvERnWaOUqQ", "full_address": "1280 S Decatur Blvd\nWestside\nLas Vegas, NV 89102"}
{"city": "Las Vegas", "state": "NV", "longitude": -115.2082275, "name": "Jack in the Box", "rating": 2.5, "cuisine": "fast food", "latitude": 36.1457753, "id": "PSSb7S4t8j4W3RtjY-9fiQ", "full_address": "2301 S Decatur Blvd\nWestside\nLas Vegas, NV 89102"}
{"city": "Las Vegas", "state": "NV", "longitude": -115.205348, "name": "Taco Bell", "rating": 2.5, "cuisine": "fast food", "latitude": 36.158728, "id": "ZR87Qw2sB-ljFWClGk6X0A", "full_address": "4717 W Charleston Blvd\nWestside\nLas Vegas, NV 89102"}
{"city": "Las Vegas", "state": "NV", "longitude": -115.2003983, "name": "Macayo Vegas", "rating": 3.5, "cuisine": "mexican", "latitude": 36.1589913, "id": "J7azgDB3RQOVFHfyVEk5HA", "full_address": "4457 W Charleston Blvd\nWestside\nLas Vegas, NV 89102"}
{"city": "Las Vegas", "state": "NV", "longitude": -115.2046243, "name": "Baja Fresh Las Vegas", "rating": 3.5, "cuisine": "mexican", "latitude": 36.1446162, "id": "kAlR7X4jiDPZdISJAAKkmg", "full_address": "4760 W Sahara Ave\nWestside\nLas Vegas, NV 89102"}
{"city": "Las Vegas", "state": "NV", "longitude": -115.2026045, "name": "TGI Friday's", "rating": 2.5, "cuisine": "american (new)", "latitude": 36.144807, "id": "Xo7K1LugLnT4pGc5TtwHRA", "full_address": "4570 W Sahara Ave\nWestside\nLas Vegas, NV 89102"}
{"city": "Las Vegas", "state": "NV", "longitude": -115.1969938, "name": "Emperor's Garden", "rating": 2.0, "cuisine": "chinese", "latitude": 36.1263784, "id": "Tigw_9LXyHL63Eu3XAXwRw", "full_address": "4215 Spring Mountain Rd\nSte B203\nChinatown\nLas Vegas, NV 89102"}
{"city": "Las Vegas", "state": "NV", "longitude": -115.203317, "name": "Joyful House Chinese Cuisine", "rating": 4.0, "cuisine": "chinese", "latitude": 36.125886, "id": "zFcd_gelAUEwAvJOgiZpvg", "full_address": "4601 Spring Mountain Rd\nChinatown\nLas Vegas, NV 89102"}
{"city": "Las Vegas", "state": "NV", "longitude": -115.1976, "name": "Tea Station", "rating": 3.0, "cuisine": "taiwanese", "latitude": 36.125964, "id": "bqYrEwL5xjqv0u8XAij--Q", "full_address": "4355 Spring Mountain Rd\nSte 106\nChinatown\nLas Vegas, NV 89102"}
{"city": "Las Vegas", "state": "NV", "longitude": -115.067454, "name": "Subway", "rating": 2.5, "cuisine": "sandwiches", "latitude": 36.158728, "id": "0ACVidzreTcv88AHqWXqNA", "full_address": "4915 E Charleston Blvd\nSunrise\nLas Vegas, NV 89104"}
{"city": "Las Vegas", "state": "NV", "longitude": -115.1425224, "name": "Seoul Korean Bar B Q Restaurant", "rating": 1.5, "cuisine": "korean", "latitude": 36.1439448, "id": "YqeK6ARj8ojseNCIYdg5WQ", "full_address": "953 E Sahara Ave\nSte E28\nDowntown\nLas Vegas, NV 89104"}
{"city": "Las Vegas", "state": "NV", "longitude": -115.1525828, "name": "White Cross Drugs", "rating": 4.0, "cuisine": "cafes", "latitude": 36.1511121, "id": "HxV4JCF-h0Novbbz5doapA", "full_address": "1700 Las Vegas Blvd S\nDowntown\nLas Vegas, NV 89104"}
{"city": "Las Vegas", "state": "NV", "longitude": -115.127554, "name": "Blueberry Hill Family Restaurant", "rating": 3.0, "cuisine": "breakfast & brunch", "latitude": 36.159189, "id": "ZndQfdbLU8pnD7b6_Z05KA", "full_address": "1723 E Charleston Blvd\nDowntown\nLas Vegas, NV 89104"}
{"city": "Las Vegas", "state": "NV", "longitude": -115.1272238, "name": "Macayo Vegas", "rating": 3.5, "cuisine": "mexican", "latitude": 36.158865, "id": "0jkZZRywo3wlmZcuCFbSEg", "full_address": "1741 E Charleston Blvd\nDowntown\nLas Vegas, NV 89104"}
{"city": "Las Vegas", "state": "NV", "longitude": -115.0762536, "name": "Lucky's Cafe", "rating": 3.5, "cuisine": "diners", "latitude": 36.149751, "id": "RlUxQZja-n9J0oPi24g8DQ", "full_address": "The Stratosphere\n2000 Las Vegas Blvd S\nSunrise\nLas Vegas, NV 89104"}
{"city": "Las Vegas", "state": "NV", "longitude": -115.155365, "name": "Buffet At the Stratosphere", "rating": 2.5, "cuisine": "buffets", "latitude": 36.147371, "id": "uy9IblmbJogF1TEUc6JHzw", "full_address": "2000 Las Vegas Blvd S\nThe Strip\nLas Vegas, NV 89104"}
{"city": "Las Vegas", "state": "NV", "longitude": -115.15520587563499, "name": "Roxy's Diner", "rating": 3.0, "cuisine": "diners", "latitude": 36.1477095178536, "id": "83C1eqPfmQHTy_8MC4Ug6w", "full_address": "Stratosphere Casino, Hotel & Tower\n2000 Las Vegas Blvd S\nThe Strip\nLas Vegas, NV 89104"}
{"city": "Las Vegas", "state": "NV", "longitude": -115.153815, "name": "Jack In the Box", "rating": 3.5, "cuisine": "fast food", "latitude": 36.1523679, "id": "4Bjn6QdaJIvsmcspcucOkA", "full_address": "1591 S Main St\nDowntown\nLas Vegas, NV 89104"}
{"city": "Las Vegas", "state": "NV", "longitude": -115.1538735, "name": "Denny's", "rating": 3.0, "cuisine": "diners", "latitude": 36.1493938, "id": "dH3rJa4JSxmlyAwg8kPLOQ", "full_address": "1826 Las Vegas Blvd S\nThe Strip\nLas Vegas, NV 89104"}
{"city": "Las Vegas", "state": "NV", "longitude": -115.1513428, "name": "Boston Pizza", "rating": 3.5, "cuisine": "pizza", "latitude": 36.1527856, "id": "q0aoi6vsi9TBU5-k3FfOOw", "full_address": "1507 Las Vegas Blvd S\nDowntown\nLas Vegas, NV 89104"}
{"city": "Las Vegas", "state": "NV", "longitude": -115.149618, "name": "Florida Cafe Cuban Bar & Grill", "rating": 3.5, "cuisine": "cuban", "latitude": 36.155323, "id": "cJTgJTzEWg5ErWnvaHsUBA", "full_address": "Howard Johnson Hotel/ Parquin & Restaurant\n1401 Las Vegas Blvd S\nDowntown\nLas Vegas, NV 89104"}
{"city": "Las Vegas", "state": "NV", "longitude": -115.148335, "name": "Ocha Cuisine", "rating": 4.0, "cuisine": "chinese", "latitude": 36.156773, "id": "DqzyOJTJXu0Iwi8og5DJDA", "full_address": "1201 Las Vegas Blvd S\nDowntown\nLas Vegas, NV 89104"}
{"city": "Las Vegas", "state": "NV", "longitude": -115.140667, "name": "Esmeralda's Cafe", "rating": 3.5, "cuisine": "mexican", "latitude": 36.158279, "id": "CR9F3ZctIiJqawDaa1w3IA", "full_address": "1000 E Charleston Blvd\nDowntown\nLas Vegas, NV 89104"}
{"city": "Las Vegas", "state": "NV", "longitude": -115.1483131, "name": "Rincon Criollo", "rating": 3.5, "cuisine": "cuban", "latitude": 36.157345, "id": "KHsTmXPujzm6-VrnyhT0dw", "full_address": "1145 Las Vegas Blvd S\nDowntown\nLas Vegas, NV 89104"}
{"city": "Las Vegas", "state": "NV", "longitude": -115.0653489, "name": "PT's", "rating": 1.5, "cuisine": "american (new)", "latitude": 36.147189, "id": "xNyTjXh2FRuT4Z8Ncj9WhA", "full_address": "2280 S Nellis Blvd\nSunrise\nLas Vegas, NV 89104"}
{"city": "Las Vegas", "state": "NV", "longitude": -115.119960978627, "name": "Italian American Club Restaurant", "rating": 4.5, "cuisine": "italian", "latitude": 36.1441679298878, "id": "c8eY_s8VO4qjAhOXo3Ua2g", "full_address": "2333 E Sahara Ave\nEastside\nLas Vegas, NV 89104"}
{"city": "Las Vegas", "state": "NV", "longitude": -115.1275613, "name": "Los Tacos", "rating": 4.0, "cuisine": "mexican", "latitude": 36.1584563, "id": "0aV8mzabKSFylfi0NQGqlQ", "full_address": "1710 E Charleston Blvd\nDowntown\nLas Vegas, NV 89104"}
{"city": "Las Vegas", "state": "NV", "longitude": -115.1464168, "name": "Cafe Heidelberg German Market & Restaurant", "rating": 3.5, "cuisine": "delis", "latitude": 36.1439863, "id": "6S8VwQ22xdj7rOX00SceJg", "full_address": "610 E Sahara Ave\nSte 2\nDowntown\nLas Vegas, NV 89104"}
{"city": "Las Vegas", "state": "NV", "longitude": -115.142526297451, "name": "Komol Restaurant", "rating": 4.0, "cuisine": "vegan", "latitude": 36.1425239406037, "id": "KwLfgeylp9d8zY3KacREiw", "full_address": "953 E Sahara Ave\nSte E-10\nEastside\nLas Vegas, NV 89104"}
{"city": "Las Vegas", "state": "NV", "longitude": -115.14569083294, "name": "Tony Roma's", "rating": 3.0, "cuisine": "american (traditional)", "latitude": 36.144308216575, "id": "DNpz7hPQtIpzInSQIWmVTw", "full_address": "620 E Sahara Ave\nDowntown\nLas Vegas, NV 89104"}
{"city": "Las Vegas", "state": "NV", "longitude": -115.1423943, "name": "Elephant BBQ Restaurant", "rating": 4.0, "cuisine": "barbeque", "latitude": 36.1421289, "id": "e15ZAv4Tcgkae-ZfCf3SXw", "full_address": "953 E Sahara Ave\nEastside\nLas Vegas, NV 89104"}
{"city": "Las Vegas", "state": "NV", "longitude": -115.136886, "name": "Taco Bell", "rating": 2.0, "cuisine": "tex-mex", "latitude": 36.144553, "id": "6jdKnIjJ9n5knZoSj7qtDw", "full_address": "2440 S Maryland Pkwy\nDowntown\nLas Vegas, NV 89104"}
{"city": "Las Vegas", "state": "NV", "longitude": -115.1405587, "name": "Tokyo Japanese Restaurant", "rating": 4.0, "cuisine": "japanese", "latitude": 36.1429063, "id": "QXUI3ZEnPw0j55qjwjiOnA", "full_address": "953 E Sahara Ave\nSte E14\nEastside\nLas Vegas, NV 89104"}
{"city": "Las Vegas", "state": "NV", "longitude": -115.1423943, "name": "Birrieria Jalisco", "rating": 3.0, "cuisine": "mexican", "latitude": 36.1421289, "id": "-5biAn5qQYk3X5NYlA98pw", "full_address": "953 E Sahara Ave\nSte E8\nEastside\nLas Vegas, NV 89104"}
{"city": "Las Vegas", "state": "NV", "longitude": -115.1405587, "name": "Sahara Korean Restaurant", "rating": 5.0, "cuisine": "korean", "latitude": 36.1429063, "id": "YkRwenPlQRloPFOX5l-iEA", "full_address": "953 E Sahara Ave\nSte E18\nEastside\nLas Vegas, NV 89104"}
{"city": "Las Vegas", "state": "NV", "longitude": -115.1365689, "name": "Pinoy Pinay Filipino Restaurant", "rating": 3.5, "cuisine": "filipino", "latitude": 36.144149, "id": "SdVDnb279GGs2qAUSVz05A", "full_address": "1217 E Sahara Ave\nDowntown\nLas Vegas, NV 89104"}
{"city": "Las Vegas", "state": "NV", "longitude": -115.1730333, "name": "Broadway Pizzeria", "rating": 4.0, "cuisine": "pizza", "latitude": 36.161111, "id": "KdJJFvYI9w5xF0EVYPbXMA", "full_address": "840 S Rancho Dr\nDowntown\nLas Vegas, NV 89106"}
{"city": "Las Vegas", "state": "NV", "longitude": -115.160885, "name": "Lacabana", "rating": 3.5, "cuisine": "mexican", "latitude": 36.1656948, "id": "3yngAIX96guuZeZ3wbpGdQ", "full_address": "526 S Martin L King Blvd\nDowntown\nLas Vegas, NV 89106"}
{"city": "Las Vegas", "state": "NV", "longitude": -115.172372, "name": "Quiznos", "rating": 3.0, "cuisine": "sandwiches", "latitude": 36.160499, "id": "S3EALtejgXNU4rfui6IriQ", "full_address": "901 S Rancho Dr\nDowntown\nLas Vegas, NV 89106"}
{"city": "Las Vegas", "state": "NV", "longitude": -115.1557538, "name": "Italia Express", "rating": 3.0, "cuisine": "italian", "latitude": 36.1652351, "id": "nVPe8vSrvGStsupNliN9nA", "full_address": "755 S Grand Central Pkwy\nDowntown\nLas Vegas, NV 89106"}
{"city": "Las Vegas", "state": "NV", "longitude": -115.156075, "name": "Auntie Anne's Soft Pretzel", "rating": 2.5, "cuisine": "fast food", "latitude": 36.165165, "id": "ZIUGkjX2C7a39Ntbm1kUSQ", "full_address": "875 S Grand Central Pkwy\nBldg 775 , Ste 1320\nDowntown\nLas Vegas, NV 89106"}
{"city": "Las Vegas", "state": "NV", "longitude": -115.1606081, "name": "Jack in the Box", "rating": 2.5, "cuisine": "fast food", "latitude": 36.1959429, "id": "sFHj_WK6rzEeGcJxtvxrRQ", "full_address": "1480 W Lake Mead Blvd\nLas Vegas, NV 89106"}
{"city": "Las Vegas", "state": "NV", "longitude": -115.1744417, "name": "Popeye's Famous Fried Chicken", "rating": 2.5, "cuisine": "chicken wings", "latitude": 36.1769889, "id": "BxmtmGLXI3EEjhVSYiuK0w", "full_address": "2421 W Bonanza Rd\nLas Vegas, NV 89106"}
{"city": "Las Vegas", "state": "NV", "longitude": -115.1523207, "name": "Seven Seas Restaurant & Lounge", "rating": 4.0, "cuisine": "soul food", "latitude": 36.1958369, "id": "lDxRfwppdtRPixGb94M4LA", "full_address": "808 W Lake Mead Blvd\nLas Vegas, NV 89106"}
{"city": "Las Vegas", "state": "NV", "longitude": -115.176519, "name": "Churchs Chicken", "rating": 4.5, "cuisine": "fast food", "latitude": 36.177463, "id": "X4B9b-0zEClDIiN0AyCdcQ", "full_address": "601 N Rancho Dr\nLas Vegas, NV 89106"}
{"city": "Las Vegas", "state": "NV", "longitude": -115.1606344, "name": "Mario's Westside Market", "rating": 4.0, "cuisine": "soul food", "latitude": 36.1949986, "id": "b6qYCOz0vzJW4U81XLY8IA", "full_address": "1960 N Martin L King Blvd\nLas Vegas, NV 89106"}
{"city": "Las Vegas", "state": "NV", "longitude": -115.178365, "name": "Wendys", "rating": 1.0, "cuisine": "hot dogs", "latitude": 36.180793, "id": "bPUwJQyifP24uhGrou_64g", "full_address": "844 N Rancho Dr\nLas Vegas, NV 89106"}
{"city": "Las Vegas", "state": "NV", "longitude": -115.197012, "name": "Roberto's Taco Shop", "rating": 4.0, "cuisine": "mexican", "latitude": 36.199694, "id": "X3KntOlUTkVL4KUKQcPehw", "full_address": "2151 N Rancho Dr\nLas Vegas, NV 89106"}
{"city": "Las Vegas", "state": "NV", "longitude": -115.1730333, "name": "Port Of Subs", "rating": 4.0, "cuisine": "sandwiches", "latitude": 36.161111, "id": "3-nZku9T-trCsNpF6AsjgA", "full_address": "840 S Rancho Dr\nDowntown\nLas Vegas, NV 89106"}
{"city": "Las Vegas", "state": "NV", "longitude": -115.2432571, "name": "Smoke Ranch Junction", "rating": 3.5, "cuisine": "", "latitude": 36.203862, "id": "nF_mARnVRFQpS3boDNgy_w", "full_address": "2425 N Rainbow Blvd\nLas Vegas, NV 89108"}
{"city": "Las Vegas", "state": "NV", "longitude": -115.118553161621, "name": "Buffet @ Asia", "rating": 3.0, "cuisine": "chinese", "latitude": 36.010452270507805, "id": "q28CkzJaV5yKPXysY8xewA", "full_address": "9901 Eastern Ave\nSte 110\nSoutheast\nLas Vegas, NV 89183"}
{"city": "Las Vegas", "state": "NV", "longitude": -115.2424449, "name": "O'aces Bar & Grill", "rating": 1.5, "cuisine": "", "latitude": 36.2140139, "id": "310xHIFxZKqthaPlkQ0_dg", "full_address": "3003 N Rainbow Boulevard\nLas Vegas, NV 89108"}
{"city": "Las Vegas", "state": "NV", "longitude": -115.2232932, "name": "Joey's Pizza", "rating": 4.0, "cuisine": "pizza", "latitude": 36.2023343, "id": "CEF6X27u5XW-oMbJ81N7Rg", "full_address": "2333 N Jones Blvd\nSte 102\nLas Vegas, NV 89108"}
{"city": "Las Vegas", "state": "NV", "longitude": -115.242978, "name": "Souper Salad", "rating": 2.5, "cuisine": "american (traditional)", "latitude": 36.198783, "id": "2hamzyOZt6urf6pFnf2u6g", "full_address": "2051 N Rainbow Blvd\nLas Vegas, NV 89108"}
{"city": "Las Vegas", "state": "NV", "longitude": -115.241662, "name": "Roberto's Taco Shop", "rating": 3.5, "cuisine": "mexican", "latitude": 36.189324, "id": "U0ZAoQx7ABrj9BGjbf5WmA", "full_address": "6650 Vegas Dr\nLas Vegas, NV 89108"}
{"city": "Las Vegas", "state": "NV", "longitude": -115.2061228, "name": "Thai Grill", "rating": 3.5, "cuisine": "thai", "latitude": 36.1941506, "id": "QXTN5WwZxvf-Z940RmDUdQ", "full_address": "1901 N Decatur Blvd\nLas Vegas, NV 89108"}
{"city": "Las Vegas", "state": "NV", "longitude": -115.241754, "name": "Omaha Steaks", "rating": 4.5, "cuisine": "steakhouses", "latitude": 36.199364, "id": "yTITK0nlyEUmPpuxMlYdQw", "full_address": "2192 N Rainbow Blvd\nSte 104\nLas Vegas, NV 89108"}
{"city": "Las Vegas", "state": "NV", "longitude": -115.2424229, "name": "Pick Up Stix", "rating": 3.0, "cuisine": "chinese", "latitude": 36.1992487, "id": "jjYxQMJrOpz-Z7ziFtXxBw", "full_address": "2101 N Rainbow Blvd\nLas Vegas, NV 89108"}
{"city": "Las Vegas", "state": "NV", "longitude": -115.241468, "name": "Pin Kaow Thai Restaurant", "rating": 4.0, "cuisine": "thai", "latitude": 36.195322, "id": "X0cEpOYi0Gf-S_-xb8OZVQ", "full_address": "1974 N Rainbow Blvd\nLas Vegas, NV 89108"}
{"city": "Las Vegas", "state": "NV", "longitude": -115.2419895, "name": "Chili's Grill & Bar", "rating": 3.5, "cuisine": "tex-mex", "latitude": 36.1961848, "id": "No0SNrxkX6ADEde-9QwtMw", "full_address": "2011 N Rainbow Blvd\nLas Vegas, NV 89108"}
{"city": "Las Vegas", "state": "NV", "longitude": -115.2402759, "name": "Tony Roma's", "rating": 3.0, "cuisine": "american (traditional)", "latitude": 36.1964438, "id": "CpUPzwk4rsV6UUgqEu1nqQ", "full_address": "2040 N Rainbow Blvd\nLas Vegas, NV 89108"}
{"city": "Las Vegas", "state": "NV", "longitude": -115.207581, "name": "Pepe's Tacos", "rating": 4.0, "cuisine": "mexican", "latitude": 36.18557, "id": "rAZglrxLotA9xaa7KPXV5g", "full_address": "1401 N Decatur Blvd\nLas Vegas, NV 89108"}
{"city": "Las Vegas", "state": "NV", "longitude": -115.2424449, "name": "O'Aces Bar & Grill", "rating": 3.5, "cuisine": "american (traditional)", "latitude": 36.2140139, "id": "PuST-CDb8kDKLX7_ESVyeQ", "full_address": "3003 N Rainbow Blvd\nLas Vegas, NV 89108"}
{"city": "Las Vegas", "state": "NV", "longitude": -115.15345, "name": "Joe's Crab Shack", "rating": 3.5, "cuisine": "american (traditional)", "latitude": 36.1518, "id": "jhO8q-4sAvlkEUC3HbBRmw", "full_address": "4250 E Sunset Blvd\nDowntown\nLas Vegas, NV 89114"}
{"city": "Las Vegas", "state": "NV", "longitude": -115.2075749, "name": "Sunshine Cafe", "rating": 4.0, "cuisine": "diners", "latitude": 36.1879988, "id": "SfHdMvLXrOeJmgpQB6AFRA", "full_address": "1581 N Decatur Blvd\nLas Vegas, NV 89108"}
{"city": "Las Vegas", "state": "NV", "longitude": -115.2248005, "name": "China Joe's", "rating": 2.5, "cuisine": "chinese", "latitude": 36.1958234, "id": "XaJQnEg63F-CJ9kNhcqOjw", "full_address": "6126 W Lake Mead Blvd\nLas Vegas, NV 89108"}
{"city": "Las Vegas", "state": "NV", "longitude": -115.2424724, "name": "Yoko Hama Sushi", "rating": 2.5, "cuisine": "japanese", "latitude": 36.2031202, "id": "d0cISYKFpXM55FzrMShLmw", "full_address": "2351 N Rainbow Blvd\nSte 103\nLas Vegas, NV 89108"}
{"city": "Las Vegas", "state": "NV", "longitude": -115.205875, "name": "Fair View Chinese Cuisine", "rating": 3.0, "cuisine": "chinese", "latitude": 36.1945164, "id": "0Em690KhL9M-WqwdWlPRfA", "full_address": "1930 N Decatur Blvd\nSte 1\nLas Vegas, NV 89108"}
{"city": "Las Vegas", "state": "NV", "longitude": -115.241409, "name": "Applebee's", "rating": 3.0, "cuisine": "american (traditional)", "latitude": 36.197314, "id": "Xro3j2fouA42Stc540ZDvw", "full_address": "2070 N Rainbow Blvd\nLas Vegas, NV 89108"}
{"city": "Las Vegas", "state": "NV", "longitude": -115.230741, "name": "Sonic Drive-In", "rating": 3.0, "cuisine": "fast food", "latitude": 36.195414, "id": "Rhdmmw6a0qdKE198eSCIJg", "full_address": "6301 W Lake Mead Blvd\nLas Vegas, NV 89108"}
{"city": "Las Vegas", "state": "NV", "longitude": -115.24243291737999, "name": "Romano's Macaroni Grill", "rating": 3.0, "cuisine": "italian", "latitude": 36.198134660417, "id": "Fw95xLMdwO9LoOtbBThr9w", "full_address": "2001 N Rainbow Blvd\nLas Vegas, NV 89108"}
{"city": "Las Vegas", "state": "NV", "longitude": -115.2324571, "name": "Torrey Pines Pub", "rating": 3.5, "cuisine": "american (traditional)", "latitude": 36.1959012, "id": "2Hh2SOWvp5IkAAO4PQ0n2Q", "full_address": "6374 W Lake Mead Blvd\nLas Vegas, NV 89108"}
{"city": "Las Vegas", "state": "NV", "longitude": -115.225456237793, "name": "Griddlecakes", "rating": 3.0, "cuisine": "breakfast & brunch", "latitude": 36.2171287536621, "id": "0lQDOFqEVB1LQhkS2kN1RA", "full_address": "3200 N Jones Blvd\nNorthwest\nLas Vegas, NV 89108"}
{"city": "Las Vegas", "state": "NV", "longitude": -115.2404192, "name": "Subway", "rating": 2.5, "cuisine": "sandwiches", "latitude": 36.2179656, "id": "Trlr-E66o3UHjTbuybRGVg", "full_address": "6621 W Cheyenne Ave\nNorthwest\nLas Vegas, NV 89108"}
{"city": "Las Vegas", "state": "NV", "longitude": -115.244985, "name": "International House of Pancakes", "rating": 4.0, "cuisine": "breakfast & brunch", "latitude": 36.219365, "id": "7hZGtb0Gd3aRcG1VH-Udcw", "full_address": "6870 W Cheyenne Ave\nNorthwest\nLas Vegas, NV 89108"}
{"city": "Las Vegas", "state": "NV", "longitude": -115.243688, "name": "Wendys", "rating": 3.0, "cuisine": "fast food", "latitude": 36.218618, "id": "pcIPHOoQZuQFfarij73Qcw", "full_address": "6732 W Cheyenne Ave\nNorthwest\nLas Vegas, NV 89108"}
{"city": "Las Vegas", "state": "NV", "longitude": -115.0626506, "name": "Papa John's Pizza", "rating": 2.0, "cuisine": "", "latitude": 36.165734, "id": "aBQbdQz_xQaw0-hNDk5TKg", "full_address": "241 N Nellis Boulevard\nSunrise\nLas Vegas, NV 89110"}
{"city": "Las Vegas", "state": "NV", "longitude": -115.079983, "name": "Viva El Taco", "rating": 3.0, "cuisine": "mexican", "latitude": 36.1599337, "id": "TwLwfoq4zYGNKSiDHflh7w", "full_address": "11 N Lamb Blvd\nSunrise\nLas Vegas, NV 89110"}
{"city": "Las Vegas", "state": "NV", "longitude": -115.0616531, "name": "Olive Garden Italian Restaurant", "rating": 3.0, "cuisine": "italian", "latitude": 36.1605253, "id": "LcVBQ-7aF87OR-vlKX5m-Q", "full_address": "80 N Nellis Blvd\nSunrise\nLas Vegas, NV 89110"}
{"city": "Las Vegas", "state": "NV", "longitude": -115.0623694, "name": "The Teriyaki Company", "rating": 4.0, "cuisine": "japanese", "latitude": 36.1754227, "id": "H2dKOR0fzYiv7ebVk3ELzw", "full_address": "719 N Nellis Blvd\nSunrise\nLas Vegas, NV 89110"}
{"city": "Las Vegas", "state": "NV", "longitude": -115.09775, "name": "McDonald's", "rating": 1.5, "cuisine": "fast food", "latitude": 36.1739559, "id": "vhjdXf1dpYpV_unDVMFuEg", "full_address": "3500 E Bonanza Rd\nLas Vegas, NV 89110"}
{"city": "Las Vegas", "state": "NV", "longitude": -115.0623318, "name": "Tacos Los Toritos", "rating": 4.5, "cuisine": "mexican", "latitude": 36.1802306, "id": "MDtMPwFswJ2FsNvrF34GDA", "full_address": "861 N Nellis Blvd\nSunrise\nLas Vegas, NV 89110"}
{"city": "Las Vegas", "state": "NV", "longitude": -115.0623846, "name": "China Olive", "rating": 1.5, "cuisine": "chinese", "latitude": 36.1627045, "id": "SSaoS_UgB7VgA9OavxZIbA", "full_address": "151 N Nellis Blvd\nSunrise\nLas Vegas, NV 89110"}
{"city": "Las Vegas", "state": "NV", "longitude": -115.0623466, "name": "Sonic Drive-In", "rating": 3.5, "cuisine": "fast food", "latitude": 36.1700842, "id": "zlqTqki1aZUAuVnDsFsvYg", "full_address": "377 N Nellis Blvd\nSunrise\nLas Vegas, NV 89110"}
{"city": "Las Vegas", "state": "NV", "longitude": -115.0796701, "name": "La Mojarra Loca", "rating": 4.5, "cuisine": "mexican", "latitude": 36.1782447, "id": "u8eDm6srUIpPuTS7Qt6xHw", "full_address": "821 N Lamb Blvd\nSte 14\nSunrise\nLas Vegas, NV 89110"}
{"city": "Las Vegas", "state": "NV", "longitude": -115.0624468, "name": "KFC", "rating": 2.5, "cuisine": "chicken wings", "latitude": 36.1612711, "id": "CPTiooPIwzbM-WJc1Rsytg", "full_address": "71 N Nellis Blvd\nSunrise\nLas Vegas, NV 89110"}
{"city": "Las Vegas", "state": "NV", "longitude": -115.0617998, "name": "Denny's Restaurant", "rating": 3.0, "cuisine": "diners", "latitude": 36.16481, "id": "vTjwSPEpaPdqUtjPk7lRyA", "full_address": "310 N Nellis Boulevard\nSunrise\nLas Vegas, NV 89110"}
{"city": "Las Vegas", "state": "NV", "longitude": -115.0619766, "name": "Applebee's Neighborhood Grill & Bar", "rating": 3.0, "cuisine": "american (traditional)", "latitude": 36.1684762, "id": "cD2VsBOKxygjV7BKbU8SRA", "full_address": "500 N Nellis Boulevard\nSunrise\nLas Vegas, NV 89110"}
{"city": "Las Vegas", "state": "NV", "longitude": -115.0618694, "name": "Wendy's", "rating": 4.0, "cuisine": "fast food", "latitude": 36.1774933, "id": "G9u_zp_sF3wumgk1gaILKw", "full_address": "990 N Nellis Blvd\nSunrise\nLas Vegas, NV 89110"}
{"city": "Las Vegas", "state": "NV", "longitude": -115.0648608, "name": "Blueberry Hill Family Restaurant", "rating": 3.5, "cuisine": "", "latitude": 36.1738204, "id": "qKZzLdcMouXji7YASALbBw", "full_address": "5000 E Bonanza Rd\nSunrise\nLas Vegas, NV 89110"}
{"city": "Las Vegas", "state": "NV", "longitude": -115.0617214, "name": "Lao Thai Kitchen", "rating": 4.0, "cuisine": "thai", "latitude": 36.1782211, "id": "7P9k2NQPeIyF1TkH5cKQVg", "full_address": "1000 N Nellis Blvd\nSte I\nSunrise\nLas Vegas, NV 89110"}
{"city": "Las Vegas", "state": "NV", "longitude": -115.0623681, "name": "Big Dog's Bar and Grill", "rating": 4.0, "cuisine": "american (traditional)", "latitude": 36.1871865, "id": "aXgzCfEzgi9T998rQyZFvA", "full_address": "1511 N Nellis Blvd\nSunrise\nLas Vegas, NV 89110"}
{"city": "Las Vegas", "state": "NV", "longitude": -115.077982, "name": "Popeye's", "rating": 1.5, "cuisine": "chicken wings", "latitude": 36.173102, "id": "vkOmXXrO-ALfz76TF6s_Gg", "full_address": "4505 E Bonanza Rd\nSunrise\nLas Vegas, NV 89110"}
{"city": "Las Vegas", "state": "NV", "longitude": -115.203383, "name": "Munch A Sub", "rating": 4.5, "cuisine": "sandwiches", "latitude": 36.0932467, "id": "hhC02OKU6BWRvrNJQiEIUw", "full_address": "5320 Cameron St\nSte 1\nLas Vegas, NV 89118"}
{"city": "Las Vegas", "state": "NV", "longitude": -115.242907, "name": "Taco Bell", "rating": 2.0, "cuisine": "tex-mex", "latitude": 36.086682, "id": "CApvjaNmMJUnfzz5hVpjrA", "full_address": "5645 S Rainbow Blvd\nSpring Valley\nLas Vegas, NV 89113"}
{"city": "Las Vegas", "state": "NV", "longitude": -115.2085216, "name": "Roberto's Taco Shop", "rating": 4.0, "cuisine": "mexican", "latitude": 36.092861, "id": "7A6RHKyblsmvHf2F377WMQ", "full_address": "5335 S Decatur Blvd\nLas Vegas, NV 89118"}
{"city": "Las Vegas", "state": "NV", "longitude": -115.208489, "name": "Domino's Pizza", "rating": 3.0, "cuisine": "chicken wings", "latitude": 36.0922493, "id": "ff00hYO8rPFDOF8YKhLTdw", "full_address": "5355 S Decatur Blvd\nLas Vegas, NV 89118"}
{"city": "Las Vegas", "state": "NV", "longitude": -115.208574, "name": "Felipito's Mexican Food", "rating": 4.0, "cuisine": "mexican", "latitude": 36.097522, "id": "T2NesLFF9Xhlho3iw8i53g", "full_address": "5095 S Decatur Boulevard\nLas Vegas, NV 89118"}
{"city": "Las Vegas", "state": "NV", "longitude": -115.2431498, "name": "Cheng's Express", "rating": 2.5, "cuisine": "chinese", "latitude": 36.0895338, "id": "e-eqwMPMDXPYSdwkQbYhSw", "full_address": "5479 S Rainbow Blvd\nSpring Valley\nLas Vegas, NV 89118"}
{"city": "Las Vegas", "state": "NV", "longitude": -115.208321, "name": "O'Aces Bar & Grill", "rating": 4.0, "cuisine": "american (traditional)", "latitude": 36.098857, "id": "sC58XGwsZowovN1CnKktOg", "full_address": "4955 S Decatur Blvd\nLas Vegas, NV 89118"}
{"city": "Las Vegas", "state": "NV", "longitude": -115.196276, "name": "Tacos El Nopal", "rating": 2.5, "cuisine": "mexican", "latitude": 36.086835, "id": "I5vURIFijxnW2sdaDl7bpw", "full_address": "4200 W Russell Rd\nLas Vegas, NV 89118"}
{"city": "Las Vegas", "state": "NV", "longitude": -115.189211, "name": "Normandie", "rating": 4.0, "cuisine": "french", "latitude": 36.095691, "id": "v_M8BMz3O93iwFtpkCT9nA", "full_address": "5190 S Valley View Blvd\nLas Vegas, NV 89118"}
{"city": "Las Vegas", "state": "NV", "longitude": -115.0562582, "name": "Memphis Championship Barbecue", "rating": 3.0, "cuisine": "barbeque", "latitude": 36.2395163, "id": "qp6lyLN1TuRu3vkwbdRjlA", "full_address": "4379 Las Vegas Blvd\nLas Vegas, NV 89115"}
{"city": "Las Vegas", "state": "NV", "longitude": -115.208392, "name": "PT's", "rating": 4.0, "cuisine": "american (new)", "latitude": 36.092274, "id": "a9Z5KKEDaC4Y4MHiRZhzzA", "full_address": "5355 S Decatur Blvd\nLas Vegas, NV 89118"}
{"city": "Las Vegas", "state": "NV", "longitude": -115.114102, "name": "Nikki Lee's Sports Pub & Grill", "rating": 3.5, "cuisine": "pizza", "latitude": 36.071999, "id": "QTJdaJ9IWf0fC0bK2Bdw7Q", "full_address": "2640 E Sunset Rd\nSoutheast\nLas Vegas, NV 89120"}
{"city": "Las Vegas", "state": "NV", "longitude": -115.2968729, "name": "Original Pancake House", "rating": 3.5, "cuisine": "breakfast & brunch", "latitude": 36.1133877, "id": "qdAxH_RrFaYqLD-g30N2fA", "full_address": "4170 S Ft Apache Rd\nSpring Valley\nLas Vegas, NV 89147"}
{"city": "Las Vegas", "state": "NV", "longitude": -115.1078327, "name": "Brewery Bar & Grill", "rating": 3.0, "cuisine": "american (traditional)", "latitude": 36.0720741, "id": "co21KMC055CxSMzdMeD0XQ", "full_address": "3088 E Sunset Rd\nSoutheast\nLas Vegas, NV 89120"}
{"city": "Las Vegas", "state": "NV", "longitude": -115.094014, "name": "Port of Subs", "rating": 3.5, "cuisine": "sandwiches", "latitude": 36.0721501, "id": "9WlnoukRsZyFwOAd6Ycbmg", "full_address": "3720 E Sunset Rd\nSte 111\nSoutheast\nLas Vegas, NV 89120"}
{"city": "Las Vegas", "state": "NV", "longitude": -115.117581, "name": "Kabob Grill", "rating": 4.0, "cuisine": "middle eastern", "latitude": 36.0146584, "id": "ky6c1bhp1695tWLfnyKOyQ", "full_address": "9550 S Eastern Ave\nSoutheast\nLas Vegas, NV 89123"}
{"city": "Las Vegas", "state": "NV", "longitude": -115.071956, "name": "Jack in the Box", "rating": 3.5, "cuisine": "fast food", "latitude": 36.086046, "id": "v9JixZ_wMP6-ftb4EYTqIg", "full_address": "4640 E Russell Rd\nSoutheast\nLas Vegas, NV 89120"}
{"city": "Las Vegas", "state": "NV", "longitude": -115.099184, "name": "PT's", "rating": 2.5, "cuisine": "american (new)", "latitude": 36.071805, "id": "NNSDXtjgNUNAgQH99R0yWw", "full_address": "3470 E Sunset Rd\nSoutheast\nLas Vegas, NV 89120"}
{"city": "Las Vegas", "state": "NV", "longitude": -115.090402, "name": "Panda Express", "rating": 3.5, "cuisine": "chinese", "latitude": 36.071707, "id": "957AgCsV5hhFLDJ5aw546w", "full_address": "3840 E Sunset Rd\nSoutheast\nLas Vegas, NV 89120"}
{"city": "Las Vegas", "state": "NV", "longitude": -115.0993861, "name": "Super Mex Restaurant & Cantina", "rating": 3.5, "cuisine": "mexican", "latitude": 36.0722521, "id": "bXfMEP__URx7f-s1GT8Teg", "full_address": "3460 E Sunset Rd\nSte D\nSoutheast\nLas Vegas, NV 89120"}
{"city": "Las Vegas", "state": "NV", "longitude": -115.101374, "name": "Subway", "rating": 5.0, "cuisine": "", "latitude": 36.099678, "id": "zizuoDgDkNCtBzCj8T-Jbg", "full_address": "3395 E Tropicana Ave\nSte 11045\nSoutheast\nLas Vegas, NV 89121"}
{"city": "Las Vegas", "state": "NV", "longitude": -115.101703181863, "name": "Office 5 Bar & Grill", "rating": 3.5, "cuisine": "american (traditional)", "latitude": 36.0863146930933, "id": "96rDpZ2OBW293QNWPIPV7g", "full_address": "3375 E Russell Rd\nSoutheast\nLas Vegas, NV 89120"}
{"city": "Las Vegas", "state": "NV", "longitude": -115.1037933, "name": "Golden Flower Chinese Cuisine", "rating": 4.0, "cuisine": "chinese", "latitude": 36.0858913, "id": "OWQJrnXbWkLTI1-qRkkUpQ", "full_address": "3315 E Russell Rd\nSoutheast\nLas Vegas, NV 89120"}
{"city": "Las Vegas", "state": "NV", "longitude": -115.1010886, "name": "Mr. Chop Chop", "rating": 3.5, "cuisine": "chinese", "latitude": 36.0970969, "id": "ZZtEx_UutNxz9B5knTL4tQ", "full_address": "5075 S Pecos Rd\nSte A\nSoutheast\nLas Vegas, NV 89120"}
{"city": "Las Vegas", "state": "NV", "longitude": -115.101518, "name": "Philly Cheesesteak Factory", "rating": 4.0, "cuisine": "cheesesteaks", "latitude": 36.078753, "id": "Rk-axrNaCJ2D2iNW--PkQg", "full_address": "6115 S Pecos Rd\nSoutheast\nLas Vegas, NV 89120"}
{"city": "Las Vegas", "state": "NV", "longitude": -115.116276, "name": "Taco Bell", "rating": 3.0, "cuisine": "tex-mex", "latitude": 36.071741, "id": "g2ZRZXEKxj0SL86etbydcg", "full_address": "2512 E Sunset Rd\nSoutheast\nLas Vegas, NV 89120"}
{"city": "Las Vegas", "state": "NV", "longitude": -115.110967, "name": "Bob's East Side Deli", "rating": 4.0, "cuisine": "sandwiches", "latitude": 36.079498, "id": "BSlmhfVEsy16C_ZUpcyB8w", "full_address": "2900 E Patrick Ln\nSoutheast\nLas Vegas, NV 89120"}
{"city": "Las Vegas", "state": "NV", "longitude": -115.115344, "name": "McDonald's", "rating": 3.0, "cuisine": "fast food", "latitude": 36.071943, "id": "VRtVE5VHgVUISPxV3jY_CQ", "full_address": "2550 E Sunset Rd\nSoutheast\nLas Vegas, NV 89120"}
{"city": "Las Vegas", "state": "NV", "longitude": -115.0911608, "name": "Amlee Chinese Cuisine", "rating": 4.0, "cuisine": "chinese", "latitude": 36.0706671, "id": "w9KBaltlg7B_tca-nNfj_A", "full_address": "3827 E Sunset Rd\nSoutheast\nLas Vegas, NV 89120"}
{"city": "Las Vegas", "state": "NV", "longitude": -115.088063, "name": "Capriotti's", "rating": 4.0, "cuisine": "sandwiches", "latitude": 36.070731, "id": "rlrc_AQC4Wn-_GKuzmrfGQ", "full_address": "3981 E Sunset Rd\nLas Vegas, NV 89120"}
{"city": "Las Vegas", "state": "NV", "longitude": -115.061928, "name": "Sonic Drive-In", "rating": 3.5, "cuisine": "fast food", "latitude": 36.099863, "id": "4PrxqzfatLLxn9ZCTW9lKw", "full_address": "5085 E Tropicana Ave\nEastside\nLas Vegas, NV 89122"}
{"city": "Las Vegas", "state": "NV", "longitude": -115.03178, "name": "Jack in the Box", "rating": 3.5, "cuisine": "fast food", "latitude": 36.0847229, "id": "ULVe1zN3HpNeVeTvRaNXoA", "full_address": "6451 Boulder Hwy\nSoutheast\nLas Vegas, NV 89122"}
{"city": "Las Vegas", "state": "NV", "longitude": -115.0530945, "name": "Del Taco", "rating": 3.0, "cuisine": "mexican", "latitude": 36.1021067, "id": "RnuCCKK-5Ezfz0xv0F2kag", "full_address": "5526 Boulder Hwy\nLas Vegas, NV 89122"}
{"city": "Las Vegas", "state": "NV", "longitude": -115.0530181, "name": "Port of Subs", "rating": 3.0, "cuisine": "sandwiches", "latitude": 36.102514, "id": "aF6QsiiI3DZ2QL_6Oo5SSA", "full_address": "5516 Boulder Hwy\nLas Vegas, NV 89122"}
{"city": "Las Vegas", "state": "NV", "longitude": -115.060916, "name": "Billy Bob's Steakhouse", "rating": 3.5, "cuisine": "steakhouses", "latitude": 36.111784, "id": "xSAG_asR5if0p1Dfk0ISsg", "full_address": "5111 Boulder Hwy\nLas Vegas, NV 89122"}
{"city": "Las Vegas", "state": "NV", "longitude": -115.060916, "name": "Willy & Jose's", "rating": 3.0, "cuisine": "mexican", "latitude": 36.111784, "id": "thlVek1kUo3fyxUEap65zw", "full_address": "5111 Boulder Hwy\nLas Vegas, NV 89122"}
{"city": "Las Vegas", "state": "NV", "longitude": -115.057863717594, "name": "Denny's", "rating": 2.0, "cuisine": "diners", "latitude": 36.1059749835584, "id": "wcrmyGHXNWFXU0DiLq_Miw", "full_address": "5318 Boulder Hwy\nLas Vegas, NV 89122"}
{"city": "Las Vegas", "state": "NV", "longitude": -115.052443, "name": "Burger King", "rating": 2.5, "cuisine": "fast food", "latitude": 36.101433, "id": "L0uKIbds8dUVCuXIWE1q5g", "full_address": "5536 Boulder Hwy\nLas Vegas, NV 89122"}
{"city": "Las Vegas", "state": "NV", "longitude": -115.04684770957, "name": "Firelight Buffet", "rating": 3.0, "cuisine": "buffets", "latitude": 36.1083983475811, "id": "1o2Lx_YMC2xpuBG2q00LAQ", "full_address": "Sam's Town\n5111 Boulder Hwy\nLas Vegas, NV 89122"}
{"city": "Las Vegas", "state": "NV", "longitude": -115.0634182, "name": "Little Caesar's Pizza", "rating": 2.5, "cuisine": "pizza", "latitude": 36.1010195, "id": "OK62swud0UWKwF3ivxHZNA", "full_address": "5020 E Tropicana Ave\nSte 1\nEastside\nLas Vegas, NV 89122"}
{"city": "Las Vegas", "state": "NV", "longitude": -115.060916, "name": "Panda Express", "rating": 3.5, "cuisine": "chinese", "latitude": 36.111784, "id": "4MWD2Ka5riz9nu80NOqUkQ", "full_address": "5111 Boulder Hwy\nLas Vegas, NV 89122"}
{"city": "Las Vegas", "state": "NV", "longitude": -115.2816734, "name": "PT's", "rating": 3.5, "cuisine": "american (new)", "latitude": 36.1995034, "id": "56Ulj9IFRp5Pz8ufJSHXBg", "full_address": "8584 W Lake Mead Blvd\nSummerlin\nLas Vegas, NV 89128"}
{"city": "Las Vegas", "state": "NV", "longitude": -115.258816, "name": "Panda Express", "rating": 3.0, "cuisine": "chinese", "latitude": 36.196201, "id": "94twCOpyD7FI3i95oiXnmQ", "full_address": "7560 W Lake Mead Blvd\nLas Vegas, NV 89128"}
{"city": "Las Vegas", "state": "NV", "longitude": -115.2817672, "name": "Pizza Hut", "rating": 3.5, "cuisine": "pizza", "latitude": 36.2005782, "id": "qtUpdBKkMxeqcK_g5TiZKQ", "full_address": "2233 N. Rampart, #3A\nSummerlin\nLas Vegas, NV 89128"}
{"city": "Las Vegas", "state": "NV", "longitude": -115.2571252, "name": "Grape Street", "rating": 3.5, "cuisine": "italian", "latitude": 36.1960224, "id": "3MIy-ca6QVtKWXNzerQxWw", "full_address": "7501 W Lake Mead Blvd\nSte 120\nLas Vegas, NV 89128"}
{"city": "Las Vegas", "state": "NV", "longitude": -115.2500796, "name": "Rubio's Fresh Mexican Grill", "rating": 4.5, "cuisine": "mexican", "latitude": 36.1970662, "id": "s3u1ET2VN9NkY0qsn9gSwQ", "full_address": "7290 W Lake Mead Blvd\nLas Vegas, NV 89128"}
{"city": "Las Vegas", "state": "NV", "longitude": -115.2537641, "name": "McDonald's", "rating": 2.5, "cuisine": "fast food", "latitude": 36.1813293, "id": "f2IKG29s2pEY1wUAIjFIlA", "full_address": "7530 W Washington Ave\nLas Vegas, NV 89128"}
{"city": "Las Vegas", "state": "NV", "longitude": -115.2602858, "name": "Roadrunner Saloon", "rating": 3.0, "cuisine": "american (traditional)", "latitude": 36.1822966, "id": "jsO9c15l1KJ5ncBid3pnmA", "full_address": "921 N Buffalo Dr\nSummerlin\nLas Vegas, NV 89128"}
{"city": "Las Vegas", "state": "NV", "longitude": -115.259949, "name": "Taco Bell", "rating": 3.0, "cuisine": "tex-mex", "latitude": 36.201355, "id": "MIYdMxSFC53wnQYm9iYteA", "full_address": "2025 Buffalo Drive\nSummerlin\nLas Vegas, NV 89128"}
{"city": "Las Vegas", "state": "NV", "longitude": -115.2531125, "name": "Chuck E Cheese's", "rating": 2.5, "cuisine": "pizza", "latitude": 36.1959753, "id": "vOfvVZQZ1N_iaq4yPois4Q", "full_address": "7381 W Lake Mead Blvd\nLas Vegas, NV 89128"}
{"city": "Las Vegas", "state": "NV", "longitude": -115.2503143, "name": "Jimmy John's", "rating": 3.5, "cuisine": "sandwiches", "latitude": 36.1962858, "id": "8YN0_08op4_chO3GTOUJLQ", "full_address": "7210 W Lake Mead Blvd\nLas Vegas, NV 89128"}
{"city": "Las Vegas", "state": "NV", "longitude": -115.2799969, "name": "Port of Subs", "rating": 3.5, "cuisine": "sandwiches", "latitude": 36.1986783, "id": "PDrn1ShvACVge3X-Q24I1g", "full_address": "8552 W Lake Mead Blvd\nSummerlin\nLas Vegas, NV 89128"}
{"city": "Las Vegas", "state": "NV", "longitude": -115.25923, "name": "Beach Pizza", "rating": 3.5, "cuisine": "pizza", "latitude": 36.1907396, "id": "3Wg1LVOommgixgqwk-gn8w", "full_address": "1780 N Buffalo Dr\n107\nLas Vegas, NV 89128"}
{"city": "Las Vegas", "state": "NV", "longitude": -115.2582758, "name": "Northside Nathan's", "rating": 3.5, "cuisine": "sandwiches", "latitude": 36.1956158, "id": "O6MyV5uqwZabD5dKbT294Q", "full_address": "7531 W Lake Mead Blvd\nLas Vegas, NV 89128"}
{"city": "Las Vegas", "state": "NV", "longitude": -115.248735, "name": "Beano's Casino", "rating": 3.5, "cuisine": "chicken wings", "latitude": 36.196502, "id": "nAfwI6ygLXLH_LGQH9GbmA", "full_address": "7200 W Lake Mead Blvd\nLas Vegas, NV 89128"}
{"city": "Las Vegas", "state": "NV", "longitude": -115.2816097, "name": "Roberto's Taco Shop", "rating": 4.0, "cuisine": "mexican", "latitude": 36.199461, "id": "LlAFlTGHWVds8xQS-ly9Bg", "full_address": "8580 W Lake Mead Blvd\nSummerlin\nLas Vegas, NV 89128"}
{"city": "Las Vegas", "state": "NV", "longitude": -115.268377, "name": "Village Pub & Casino", "rating": 3.5, "cuisine": "", "latitude": 36.206727, "id": "VYCbveCk-j4UR_aSTuASJA", "full_address": "2610 Regatta Dr\nSummerlin\nLas Vegas, NV 89128"}
{"city": "Las Vegas", "state": "NV", "longitude": -115.280873, "name": "Burger King", "rating": 3.5, "cuisine": "fast food", "latitude": 36.199276, "id": "S9jqNbEHIsOf2JTJ-yIe0w", "full_address": "8564 W Lake Mead Blvd\nSummerlin\nLas Vegas, NV 89128"}
{"city": "Las Vegas", "state": "NV", "longitude": -115.246608, "name": "Arbys", "rating": 2.0, "cuisine": "sandwiches", "latitude": 36.194992, "id": "YzdGufP7VFwQneDKzb37hQ", "full_address": "1940 Rock Springs Dr\nLas Vegas, NV 89128"}
{"city": "Las Vegas", "state": "NV", "longitude": -115.2799007, "name": "Red Rock Pizza", "rating": 4.0, "cuisine": "pizza", "latitude": 36.1980644, "id": "1dk07edqr5_7goS6AnXAjw", "full_address": "8455 W Lake Mead Blvd\nSummerlin\nLas Vegas, NV 89128"}
{"city": "Las Vegas", "state": "NV", "longitude": -115.2600699, "name": "Steiner's Nevada Style Pub", "rating": 3.5, "cuisine": "american (traditional)", "latitude": 36.1907268, "id": "tGx7BSyqWDeppMvt2aQw_A", "full_address": "1750 N Buffalo Dr\nSte 115\nSummerlin\nLas Vegas, NV 89128"}
{"city": "Las Vegas", "state": "NV", "longitude": -115.2818774, "name": "Omelet House", "rating": 3.5, "cuisine": "american (traditional)", "latitude": 36.2004665, "id": "ZBVXf0uC7k8iKDYCIMa2tQ", "full_address": "2227 N Rampart Blvd\nSummerlin\nLas Vegas, NV 89128"}
{"city": "Las Vegas", "state": "NV", "longitude": -115.257829, "name": "Del Taco", "rating": 3.5, "cuisine": "mexican", "latitude": 36.196252, "id": "kfhlEFpZlKIfInAC5XDuxw", "full_address": "7480 W Lake Mead Blvd\nLas Vegas, NV 89128"}
{"city": "Las Vegas", "state": "NV", "longitude": -115.2479571, "name": "Wendy's Old Fashioned Hamburgers", "rating": 2.5, "cuisine": "hot dogs", "latitude": 36.1962859, "id": "fgDJP-wW_Fr_tD2ywkHEJA", "full_address": "7150 W Lake Mead Boulevard\nLas Vegas, NV 89128"}
{"city": "Las Vegas", "state": "NV", "longitude": -115.2571251, "name": "Dairy Queen", "rating": 3.5, "cuisine": "fast food", "latitude": 36.1960365, "id": "QnTdvqfbbX0d0LjV_y_6_w", "full_address": "7501 W Lake Mead Blvd\nLas Vegas, NV 89128"}
{"city": "Las Vegas", "state": "NV", "longitude": -115.281657, "name": "Diamond China 2", "rating": 3.5, "cuisine": "chinese", "latitude": 36.2006899, "id": "HNmyXUXKSr3JI2yXuU7EMQ", "full_address": "2239 N Rampart Blvd\nSummerlin\nLas Vegas, NV 89128"}
{"city": "Las Vegas", "state": "NV", "longitude": -115.247371, "name": "World Buffet", "rating": 1.5, "cuisine": "buffets", "latitude": 36.197664, "id": "XcR-GFhRoHyoJFBE9r1hIQ", "full_address": "2131 Rock Springs Dr\nLas Vegas, NV 89128"}
{"city": "Las Vegas", "state": "NV", "longitude": -115.2509056, "name": "Marc's Authentic Italian", "rating": 3.5, "cuisine": "italian", "latitude": 36.1962809, "id": "noNwSURKeBMLD6Dfv1cpKw", "full_address": "7290 W Lake Mead Blvd\nLas Vegas, NV 89128"}
{"city": "Las Vegas", "state": "NV", "longitude": -115.252849, "name": "Yummy Grill & Sushi", "rating": 4.5, "cuisine": "japanese", "latitude": 36.196089, "id": "bpGFetX8muk0GxAT3Oea3Q", "full_address": "7331 W Lake Mead Blvd\nSte 105\nLas Vegas, NV 89128"}
{"city": "Las Vegas", "state": "NV", "longitude": -115.252325, "name": "Quiznos Subs", "rating": 2.5, "cuisine": "sandwiches", "latitude": 36.1951421, "id": "KM3O4Fs29fCyI5sqo62PgQ", "full_address": "7331 W Lake Mead Blvd\nSte 106\nLas Vegas, NV 89128"}
{"city": "Las Vegas", "state": "NV", "longitude": -115.2600726, "name": "Charlie's Down Under", "rating": 3.0, "cuisine": "american (traditional)", "latitude": 36.1949248, "id": "VHCYxuMllRr0U9lbnBMuyA", "full_address": "1950 N Buffalo Dr\nSummerlin\nLas Vegas, NV 89128"}
{"city": "Las Vegas", "state": "NV", "longitude": -115.268455505371, "name": "March Bacchus", "rating": 4.0, "cuisine": "french", "latitude": 36.2074279785156, "id": "lqx--hrRwe0oK6WnFYNXlg", "full_address": "2620 Regatta Dr\nSte 106\nSummerlin\nLas Vegas, NV 89128"}
{"city": "Las Vegas", "state": "NV", "longitude": -115.247447, "name": "Wienerschnitzel", "rating": 4.5, "cuisine": "", "latitude": 36.197322, "id": "7hOWdXrR7ndiSaFH7Ofi1A", "full_address": "2071 Rock Springs Dr\nLas Vegas, NV 89128"}
{"city": "Las Vegas", "state": "NV", "longitude": -115.2581988, "name": "Jack In the Box", "rating": 3.0, "cuisine": "fast food", "latitude": 36.1964157, "id": "hHtnI48vIcL0ZJfc-_LYDA", "full_address": "7510 W Lake Mead Blvd\nLas Vegas, NV 89128"}
{"city": "Las Vegas", "state": "NV", "longitude": -115.2571252, "name": "Baja Fresh Mexican Grill", "rating": 4.0, "cuisine": "mexican", "latitude": 36.1960224, "id": "a8n9OkEQGQvKHWPv93OC2Q", "full_address": "7501 W Lake Mead Blvd\nSte 100\nLas Vegas, NV 89128"}
{"city": "Las Vegas", "state": "NV", "longitude": -115.281363, "name": "Subway", "rating": 4.0, "cuisine": "sandwiches", "latitude": 36.2009876, "id": "uwy_04v5iVHOWb8U845wug", "full_address": "2255 N Rampart Blvd\nSummerlin\nLas Vegas, NV 89128"}
{"city": "Las Vegas", "state": "NV", "longitude": -115.2600699, "name": "Subway", "rating": 4.0, "cuisine": "sandwiches", "latitude": 36.1907268, "id": "_2HFbrYZFp2p59hptZeDbw", "full_address": "1750 N Buffalo Dr\nSummerlin\nLas Vegas, NV 89128"}
{"city": "Las Vegas", "state": "NV", "longitude": -115.259825, "name": "Samurai Sam's Teriyaki Grill", "rating": 2.5, "cuisine": "japanese", "latitude": 36.197534, "id": "8FPi95ZuJHF30N-einyEmw", "full_address": "7550 W Lake Mead Blvd\nSte 8\nSummerlin\nLas Vegas, NV 89128"}
{"city": "Las Vegas", "state": "NV", "longitude": -115.256149291992, "name": "Round Table Pizza", "rating": 4.0, "cuisine": "pizza", "latitude": 36.1969718933105, "id": "C_7XW_kw9JtFkE8dzI7BiQ", "full_address": "7460 W Lake Mead Blvd\nSte 8\nLas Vegas, NV 89128"}
{"city": "Las Vegas", "state": "NV", "longitude": -115.212381, "name": "Taco Bell", "rating": 3.0, "cuisine": "tex-mex", "latitude": 36.217635, "id": "Su2-lf8TbowpHZcS3XIRfQ", "full_address": "3221 North Rancho Drive\nNorthwest\nLas Vegas, NV 89108"}
{"city": "Las Vegas", "state": "NV", "longitude": -115.206976, "name": "Sonic Drive-In", "rating": 2.5, "cuisine": "fast food", "latitude": 36.240226, "id": "W3z8TV-MZIYkWgfN6cyJPg", "full_address": "4442 N Decatur Blvd\nNorthwest\nLas Vegas, NV 89130"}
{"city": "Las Vegas", "state": "NV", "longitude": -115.242815, "name": "Dimas Tacos", "rating": 4.5, "cuisine": "mexican", "latitude": 36.254519, "id": "p9chyHwl6KJ5B6C935hRSw", "full_address": "5081 N Rainbow Boulevard\nSuite 103\nNorthwest\nLas Vegas, NV 89130"}
{"city": "Las Vegas", "state": "NV", "longitude": -115.2092861, "name": "Roberto's Taco Shop #22", "rating": 4.0, "cuisine": "mexican", "latitude": 36.2466674, "id": "ox2rL_UzIkvwMHIZC72DHw", "full_address": "4886 W Lone Mountain Rd\nNorthwest\nLas Vegas, NV 89130"}
{"city": "Las Vegas", "state": "NV", "longitude": -115.2489614, "name": "Quiznos", "rating": 3.5, "cuisine": "sandwiches", "latitude": 36.2617919, "id": "Klkzp8MC1qSKZDkTLYkcQA", "full_address": "7135 W Ann Rd\nNorthwest\nLas Vegas, NV 89130"}
{"city": "Las Vegas", "state": "NV", "longitude": -115.233117, "name": "Baja Fresh Mexican Grill", "rating": 3.0, "cuisine": "mexican", "latitude": 36.238728, "id": "tCpPBS3txiz9dzm5trJusQ", "full_address": "4343 N Rancho Dr\nSte 100\nNorthwest\nLas Vegas, NV 89130"}
{"city": "Las Vegas", "state": "NV", "longitude": -115.2501061, "name": "McDonald's", "rating": 3.0, "cuisine": "fast food", "latitude": 36.2628802, "id": "Xh72J-rep2vkskAq1TCMeQ", "full_address": "7171 W Ann Rd\nNorthwest\nLas Vegas, NV 89130"}
{"city": "Las Vegas", "state": "NV", "longitude": -115.2428492, "name": "Memphis Championship Barbecue", "rating": 2.0, "cuisine": "barbeque", "latitude": 36.2490797, "id": "rdFoHyN4apsyelq_9khE_g", "full_address": "4949 N Rancho Dr\nNorthwest\nLas Vegas, NV 89130"}
{"city": "Las Vegas", "state": "NV", "longitude": -115.2358857, "name": "Baba's Tsi-bugan Restaurant", "rating": 4.0, "cuisine": "filipino", "latitude": 36.2433513, "id": "P1BK2ke-N4XLsBSNWpSeLQ", "full_address": "4588 N Rancho Dr\nSte 7\nNorthwest\nLas Vegas, NV 89130"}
{"city": "Las Vegas", "state": "NV", "longitude": -115.213267, "name": "Jack in the Box", "rating": 4.0, "cuisine": "fast food", "latitude": 36.217618, "id": "2FurIZ1RmC9HndCQJAZJKA", "full_address": "3211 N Rancho Dr\nNorthwest\nLas Vegas, NV 89130"}
{"city": "Las Vegas", "state": "NV", "longitude": -115.246152, "name": "Bob Taylor's Ranch House", "rating": 3.5, "cuisine": "steakhouses", "latitude": 36.274385, "id": "3Nt3CA4IDxt0SeQO24gb-Q", "full_address": "6250 Rio Vista St\nCentennial\nLas Vegas, NV 89130"}
{"city": "Las Vegas", "state": "NV", "longitude": -115.2358276, "name": "Big Dog's Draft House", "rating": 3.5, "cuisine": "american (traditional)", "latitude": 36.242387, "id": "aidjBZ-cLeRmrsAPM6ZkcA", "full_address": "4543 N Rancho Dr\nNorthwest\nLas Vegas, NV 89130"}
{"city": "Las Vegas", "state": "NV", "longitude": -115.210422, "name": "Cheyenne Saloon", "rating": 3.5, "cuisine": "", "latitude": 36.2152318, "id": "3BBqVbU_Z-kCcUfV3xIUYQ", "full_address": "3103 N Rancho Dr\nLas Vegas, NV 89130"}
{"city": "Las Vegas", "state": "NV", "longitude": -115.2172862, "name": "Kerry's Sports Pub Pizza & Grille", "rating": 3.0, "cuisine": "pizza", "latitude": 36.2229546, "id": "pPoBiFyTjwPSg3R2Q3AeVQ", "full_address": "3520 N Rancho Dr\nNorthwest\nLas Vegas, NV 89130"}
{"city": "Las Vegas", "state": "NV", "longitude": -115.212427, "name": "McDonald's", "rating": 2.0, "cuisine": "fast food", "latitude": 36.216778, "id": "gtlAwb0eZ4rPWjv_42OUCA", "full_address": "3175 N Rancho Dr\nNorthwest\nLas Vegas, NV 89130"}
{"city": "Las Vegas", "state": "NV", "longitude": -115.243248, "name": "Santa Fe Mining Company", "rating": 3.0, "cuisine": "american (traditional)", "latitude": 36.252649, "id": "ibUy5WjSFnrFyWZKgzk6xQ", "full_address": "5021 N Rainbow Blvd\nNorthwest\nLas Vegas, NV 89130"}
{"city": "Las Vegas", "state": "NV", "longitude": -115.2335805, "name": "KFC", "rating": 2.0, "cuisine": "fast food", "latitude": 36.2408055, "id": "cc2GmqotftMW6B4K1PhQ-w", "full_address": "4434 N Rancho Dr\nNorthwest\nLas Vegas, NV 89130"}
{"city": "Las Vegas", "state": "NV", "longitude": -115.2093569, "name": "Little Caesars Pizza", "rating": 2.0, "cuisine": "italian", "latitude": 36.2466654, "id": "nqUg5UdPVwNABqaM4iuXsw", "full_address": "4898 W Lone Mountain Rd\nNorthwest\nLas Vegas, NV 89130"}
{"city": "Las Vegas", "state": "NV", "longitude": -115.2476783, "name": "Great China", "rating": 3.5, "cuisine": "chinese", "latitude": 36.2618942, "id": "7tF__YC7VkQs671ZtsYrgw", "full_address": "7045 W Ann Rd\nNorthwest\nLas Vegas, NV 89130"}
{"city": "Las Vegas", "state": "NV", "longitude": -115.2481338, "name": "Grand China Fine Chinese Cuisine", "rating": 2.5, "cuisine": "chinese", "latitude": 36.2630448, "id": "TUxCIJ6Jj2lEOqoVIoUH4g", "full_address": "7045 W Ann Rd\nSte 110\nNorthwest\nLas Vegas, NV 89130"}
{"city": "Las Vegas", "state": "NV", "longitude": -115.2089314, "name": "Papa Murphys Take and Bake Pizza", "rating": 3.5, "cuisine": "pizza", "latitude": 36.2389627, "id": "IUNrEkrbBTd2xbEHC4mutQ", "full_address": "4900 W Craig Rd\nNorthwest\nLas Vegas, NV 89130"}
{"city": "Las Vegas", "state": "NV", "longitude": -115.235295, "name": "Fatburger", "rating": 3.0, "cuisine": "fast food", "latitude": 36.241822, "id": "h0BHOYLztdLqWNI-h4hwOw", "full_address": "4525 N. Rancho Dr.\nNorthwest\nLas Vegas, NV 89130"}
{"city": "Las Vegas", "state": "NV", "longitude": -115.2349356, "name": "Wendy's Old Fashioned Hamburgers", "rating": 3.5, "cuisine": "hot dogs", "latitude": 36.2424474, "id": "RR25EwdiL1TfH_bIaKvt7w", "full_address": "4560 N Rancho Dr\nNorthwest\nLas Vegas, NV 89130"}
{"city": "Las Vegas", "state": "NV", "longitude": -115.2797316, "name": "Domino's Pizza", "rating": 3.5, "cuisine": "chicken wings", "latitude": 36.2102347, "id": "d2aQXdVOTwjVGZaXBXeIgg", "full_address": "8532 Del Webb Blvd\nSte 116\nSummerlin\nLas Vegas, NV 89134"}
{"city": "Las Vegas", "state": "NV", "longitude": -115.305871, "name": "Panda Express", "rating": 3.0, "cuisine": "chinese", "latitude": 36.193694, "id": "R1_6Crx6keOZ23AWk1vOuw", "full_address": "1940 Village Center Cir\nSummerlin\nLas Vegas, NV 89134"}
{"city": "Las Vegas", "state": "NV", "longitude": -115.2794155, "name": "El Burrito Mexican Restaurant", "rating": 3.5, "cuisine": "mexican", "latitude": 36.2102322, "id": "LTHq7A5vVAwtqqu5i2ZLUQ", "full_address": "8508 Del Webb Blvd\nSummerlin\nLas Vegas, NV 89134"}
{"city": "Las Vegas", "state": "NV", "longitude": -115.300544, "name": "Taco Bell", "rating": 3.5, "cuisine": "tex-mex", "latitude": 36.206848, "id": "k2CdgSzyVR7b-L75tfXHUA", "full_address": "9480 W. Lake Mead Blvd.\nSummerlin\nLas Vegas, NV 89134"}
{"city": "Las Vegas", "state": "NV", "longitude": -115.3055866, "name": "Sultan's Grill", "rating": 3.0, "cuisine": "mediterranean", "latitude": 36.1929381, "id": "ivi5jHjmf2uV8faGJ9Rfig", "full_address": "1910 Village Center Cir\nSte 7\nSummerlin\nLas Vegas, NV 89134"}
{"city": "Las Vegas", "state": "NV", "longitude": -115.3036173, "name": "Jack in the Box", "rating": 3.5, "cuisine": "fast food", "latitude": 36.2065795, "id": "yhrTMjhnrCsqDR_tJfyLCQ", "full_address": "9490 W Lake Mead Blvd\nSummerlin\nLas Vegas, NV 89134"}
{"city": "Las Vegas", "state": "NV", "longitude": -115.034612, "name": "Sunrise Casablanca", "rating": 4.5, "cuisine": "", "latitude": 36.15988, "id": "-CIZh4JOZuOEbSzLVrAIGw", "full_address": "6320 E Charleston Boulevard\nSunrise\nLas Vegas, NV 89142"}
{"city": "Las Vegas", "state": "NV", "longitude": -115.0492967, "name": "Sonic Drive-In", "rating": 4.0, "cuisine": "fast food", "latitude": 36.1588987, "id": "KLRHYLnVch4x2bJXK9hmAQ", "full_address": "5725 E Charleston Blvd\nSunrise\nLas Vegas, NV 89142"}
{"city": "Las Vegas", "state": "NV", "longitude": -115.309074, "name": "Burger King", "rating": 3.5, "cuisine": "fast food", "latitude": 36.184049, "id": "BpEFRLfOIpwd06y-xEm88w", "full_address": "1280 N Town Center Dr\nSummerlin\nLas Vegas, NV 89144"}
{"city": "Las Vegas", "state": "NV", "longitude": -115.308819, "name": "Ruby Tuesday", "rating": 4.0, "cuisine": "", "latitude": 36.183143, "id": "B3eO8HjT8APDNLW6PSx5lA", "full_address": "1220 N Town Ctr Dr\nSummerlin\nLas Vegas, NV 89144"}
{"city": "Las Vegas", "state": "NV", "longitude": -115.3094988, "name": "Fazoli's Italian Restaurant", "rating": 3.5, "cuisine": "italian", "latitude": 36.1839721, "id": "wv-U4BHulKC0OxjkP5zPqw", "full_address": "1260 N Town Center Dr\nSummerlin\nLas Vegas, NV 89144"}
{"city": "Las Vegas", "state": "NV", "longitude": -115.2231413, "name": "KJ Kitchen", "rating": 3.5, "cuisine": "chinese", "latitude": 36.1256877, "id": "1MJ5xmHmeCiau07X2bQyUQ", "full_address": "5960 Spring Mountain Rd\nChinatown\nLas Vegas, NV 89146"}
{"city": "Las Vegas", "state": "NV", "longitude": -115.2316887, "name": "Prommares Thai Food", "rating": 4.0, "cuisine": "thai", "latitude": 36.144212, "id": "T4AyBSffvi3prLrw0H2enA", "full_address": "6362 W Sahara Ave\nWestside\nLas Vegas, NV 89146"}
{"city": "Las Vegas", "state": "NV", "longitude": -115.2364833, "name": "Sammy's Woodfired Pizza and Grill", "rating": 4.0, "cuisine": "gluten-free", "latitude": 36.1442244, "id": "_ZyJLAlkmqefU0WXQ2o6jQ", "full_address": "6500 W Sahara Ave\nWestside\nLas Vegas, NV 89146"}
{"city": "Las Vegas", "state": "NV", "longitude": -115.242438, "name": "Sushi On Rainbow", "rating": 3.5, "cuisine": "japanese", "latitude": 36.126717, "id": "3DHwRjWomOtnxM1v6-bPEQ", "full_address": "6870 Spring Mountain Rd\nSte 6\nChinatown\nLas Vegas, NV 89146"}
{"city": "Las Vegas", "state": "NV", "longitude": -115.167503356934, "name": "Hooters Casino Hotel", "rating": 2.5, "cuisine": "american (new)", "latitude": 36.0998077392578, "id": "KJnVuzpveyDrHARVNZaYVg", "full_address": "115 E Tropicana Ave\nSoutheast\nLas Vegas, NV 89109"}
{"city": "Las Vegas", "state": "NV", "longitude": -115.2187129, "name": "Pho Saigon 8", "rating": 3.5, "cuisine": "vietnamese", "latitude": 36.125761, "id": "33aOj9haiHsULCUmFOZ7uQ", "full_address": "5650 Spring Mountain Rd\nChinatown\nLas Vegas, NV 89146"}
{"city": "Las Vegas", "state": "NV", "longitude": -115.2247746, "name": "Fiesta Filipina", "rating": 3.0, "cuisine": "filipino", "latitude": 36.1286223, "id": "rExmZxKkcO0VfOVMo-w66g", "full_address": "3310 S Jones Blvd\nSte A\nWestside\nLas Vegas, NV 89146"}
{"city": "Las Vegas", "state": "NV", "longitude": -115.2431473, "name": "Arby's Roast Beef Sandwich Restaurants", "rating": 2.0, "cuisine": "sandwiches", "latitude": 36.1468919, "id": "1zgwmE26LtJH5C1mD6MQpw", "full_address": "2205 S Rainbow Blvd\nWestside\nLas Vegas, NV 89146"}
{"city": "Las Vegas", "state": "NV", "longitude": -115.2438882, "name": "Kopper Keg Restaurant & Lounge", "rating": 3.5, "cuisine": "american (traditional)", "latitude": 36.146289, "id": "R_os9qwoga12ksSzAwZdoA", "full_address": "2257 S Rainbow Blvd\nWestside\nLas Vegas, NV 89146"}
{"city": "Las Vegas", "state": "NV", "longitude": -115.213867, "name": "Rincon De Buenos Aires", "rating": 4.5, "cuisine": "argentine", "latitude": 36.126501, "id": "O1NBNVfXWmk3CvszAhOEoQ", "full_address": "5300 Spring Mountain Rd\nChinatown\nLas Vegas, NV 89146"}
{"city": "Las Vegas", "state": "NV", "longitude": -115.2335289, "name": "McDonald's", "rating": 2.0, "cuisine": "fast food", "latitude": 36.1591886, "id": "VGfxLCiUYKjE-LreN6r50A", "full_address": "6360 W Charleston Blvd\nWestside\nLas Vegas, NV 89146"}
{"city": "Las Vegas", "state": "NV", "longitude": -115.2434253, "name": "HoneyBaked", "rating": 4.0, "cuisine": "sandwiches", "latitude": 36.1583497, "id": "1syMfUAu8so1wjntLW8Y8Q", "full_address": "1112 S Rainbow Blvd\nWestside\nLas Vegas, NV 89146"}
{"city": "Las Vegas", "state": "NV", "longitude": -115.2225113, "name": "Polish Deli", "rating": 4.0, "cuisine": "salad", "latitude": 36.1593493, "id": "QDLYkhj0yS47Qgziw1DDHA", "full_address": "5900 W Charleston Blvd\nWestside\nLas Vegas, NV 89146"}
{"city": "Las Vegas", "state": "NV", "longitude": -115.2072699, "name": "Original Pancake House", "rating": 4.0, "cuisine": "breakfast & brunch", "latitude": 36.1589104, "id": "kr9gePdA-ds4ltXLlH3M_A", "full_address": "4833 W Charleston Blvd\nWestside\nLas Vegas, NV 89146"}
{"city": "Las Vegas", "state": "NV", "longitude": -115.2422681, "name": "Buffet Asia", "rating": 3.0, "cuisine": "chinese", "latitude": 36.144758, "id": "ME0olHUKPsJ9spaLudZlYA", "full_address": "2380 S Rainbow Blvd\nWestside\nLas Vegas, NV 89146"}
{"city": "Las Vegas", "state": "NV", "longitude": -115.225945, "name": "Que Huong Restaurant", "rating": 4.0, "cuisine": "vietnamese", "latitude": 36.126625, "id": "YTbSJITWKp_QgfY2vrXvSQ", "full_address": "3409 S Jones Blvd\nChinatown\nLas Vegas, NV 89146"}
{"city": "Las Vegas", "state": "NV", "longitude": -115.225724, "name": "Popeyes Chicken & Biscuits", "rating": 2.5, "cuisine": "fast food", "latitude": 36.143699, "id": "AqE6eArwtYYO-iazkL37yQ", "full_address": "6111 W Sahara Ave\nWestside\nLas Vegas, NV 89146"}
{"city": "Las Vegas", "state": "NV", "longitude": -115.242763, "name": "Mr D's Sportsbar & Grill", "rating": 4.0, "cuisine": "american (traditional)", "latitude": 36.151297, "id": "jOMTNCPSiUIdToLtc5y4Fw", "full_address": "1810 S Rainbow Blvd\nWestside\nLas Vegas, NV 89146"}
{"city": "Las Vegas", "state": "NV", "longitude": -115.2437024, "name": "Pizza Hut", "rating": 3.0, "cuisine": "pizza", "latitude": 36.1520108, "id": "y4oY9fiyTgkcewPGP3OGXQ", "full_address": "1745 S. Rainbow Blvd., Suite A\nWestside\nLas Vegas, NV 89146"}
{"city": "Las Vegas", "state": "NV", "longitude": -115.2442322, "name": "Wendys", "rating": 3.0, "cuisine": "hot dogs", "latitude": 36.1574585, "id": "zcZP9NIFwo16JTN5estcsg", "full_address": "1151 S Rainbow Blvd\nWestside\nLas Vegas, NV 89146"}
{"city": "Las Vegas", "state": "NV", "longitude": -115.2257587, "name": "Taco Bell", "rating": 2.5, "cuisine": "tex-mex", "latitude": 36.144723, "id": "gwAIppG7JZRmqnV7ywmJxQ", "full_address": "6110 W Sahara Ave\nWestside\nLas Vegas, NV 89102"}
{"city": "Las Vegas", "state": "NV", "longitude": -115.2249786, "name": "Winchells Donuts", "rating": 4.0, "cuisine": "sandwiches", "latitude": 36.1282179, "id": "rmna5Vh8PnfHsmwx1p4GYg", "full_address": "3307 S Jones Blvd\nWestside\nLas Vegas, NV 89146"}
{"city": "Las Vegas", "state": "NV", "longitude": -115.2431013, "name": "McDonald's", "rating": 1.5, "cuisine": "burgers", "latitude": 36.1456254, "id": "gj_8sI7cjD_1pH6gPBcNRg", "full_address": "2340 S Rainbow Blvd\nWestside\nLas Vegas, NV 89146"}
{"city": "Las Vegas", "state": "NV", "longitude": -115.208898, "name": "Jack in the Box", "rating": 2.5, "cuisine": "fast food", "latitude": 36.126592, "id": "zN33MhQmlCB3yhlunL4M9Q", "full_address": "4970 Spring Mountain Rd\nChinatown\nLas Vegas, NV 89146"}
{"city": "Las Vegas", "state": "NV", "longitude": -115.225621, "name": "Dairy Queen", "rating": 3.0, "cuisine": "fast food", "latitude": 36.1251279, "id": "3ZVFdP5Xp9JZAKQkT98kDQ", "full_address": "6125 Spring Mountain Road\nChinatown\nLas Vegas, NV 89146"}
{"city": "Las Vegas", "state": "NV", "longitude": -115.233012, "name": "Sonic Drive-In", "rating": 3.5, "cuisine": "fast food", "latitude": 36.143552, "id": "S4nbHSW29N0rcXkIlA-wbQ", "full_address": "6455 W Sahara Ave\nWestside\nLas Vegas, NV 89146"}
{"city": "Las Vegas", "state": "NV", "longitude": -115.2222504, "name": "Sushi Yamaguchi", "rating": 4.0, "cuisine": "japanese", "latitude": 36.1593466, "id": "ZqJQSSmHtoAx0O_SGz3piQ", "full_address": "5900 W Charleston Blvd\nWestside\nLas Vegas, NV 89146"}
{"city": "Las Vegas", "state": "NV", "longitude": -115.218416, "name": "The Tap House", "rating": 3.5, "cuisine": "italian", "latitude": 36.158414, "id": "G2AqHSVc8t6I21qiHeq7jA", "full_address": "5589 W Charleston Blvd\nWestside\nLas Vegas, NV 89146"}
{"city": "Las Vegas", "state": "NV", "longitude": -115.207506, "name": "Fatburger", "rating": 3.0, "cuisine": "fast food", "latitude": 36.1589501, "id": "_MuHx0aYUfLbNzkqJ2uBWg", "full_address": "4851 W Charleston Blvd\nWestside\nLas Vegas, NV 89146"}
{"city": "Las Vegas", "state": "NV", "longitude": -115.2244681, "name": "New York Pizza & Pasta", "rating": 4.0, "cuisine": "pizza", "latitude": 36.1455047, "id": "7Mgly28cnzY-2py2ClEjiA", "full_address": "2400 S Jones Blvd\nSte 13\nWestside\nLas Vegas, NV 89146"}
{"city": "Las Vegas", "state": "NV", "longitude": -115.2217, "name": "Blue Ox Tavern", "rating": 4.5, "cuisine": "american (traditional)", "latitude": 36.142636, "id": "tJhh6NDsNIwWMpxlP-0F7g", "full_address": "5825 W Sahara Ave\nSte A\nWestside\nLas Vegas, NV 89146"}
{"city": "Las Vegas", "state": "NV", "longitude": -115.219883, "name": "Roma Deli & Restaurant", "rating": 4.5, "cuisine": "italian", "latitude": 36.125163, "id": "8871Si56d_dc0igE3TRpgA", "full_address": "5755 Spring Mountain Rd\nChinatown\nLas Vegas, NV 89146"}
{"city": "Las Vegas", "state": "NV", "longitude": -115.2182851, "name": "Marnee Thai Restaurant", "rating": 3.5, "cuisine": "thai", "latitude": 36.1265084, "id": "5geSNRVBlvhoJlRK1zAS0g", "full_address": "5600 Spring Mountain Rd\nSte A\nChinatown\nLas Vegas, NV 89146"}
{"city": "Las Vegas", "state": "NV", "longitude": -115.242438, "name": "Subway", "rating": 3.0, "cuisine": "sandwiches", "latitude": 36.126717, "id": "ZBC-1VWUU5WpKlPokxJZZg", "full_address": "6870 Spring Mountain Rd\nSte 4\nChinatown\nLas Vegas, NV 89146"}
{"city": "Las Vegas", "state": "NV", "longitude": -115.243384, "name": "Burger King", "rating": 2.0, "cuisine": "hot dogs", "latitude": 36.126001, "id": "gSTHZH478BJIKAx7IKD2sA", "full_address": "3485 S Rainbow Blvd\nChinatown\nLas Vegas, NV 89146"}
{"city": "Las Vegas", "state": "NV", "longitude": -115.213867, "name": "Cathay House Restaurant", "rating": 3.0, "cuisine": "chinese", "latitude": 36.126501, "id": "Xnwjo2TUu4AyGdmsxeG7OQ", "full_address": "5300 Spring Mountain Rd\nSte 107\nChinatown\nLas Vegas, NV 89146"}
{"city": "Las Vegas", "state": "NV", "longitude": -115.242714, "name": "Maui Rose Hawaiian Bbq", "rating": 3.0, "cuisine": "hawaiian", "latitude": 36.159527, "id": "POdn5abX1-lW0qns9cDd_A", "full_address": "6700 W Charleston Blvd\nWestside\nLas Vegas, NV 89146"}
{"city": "Las Vegas", "state": "NV", "longitude": -115.243109, "name": "Wienerschnitzel", "rating": 3.5, "cuisine": "hot dogs", "latitude": 36.152902, "id": "WospRNxNAnsHcC5o6xPI2A", "full_address": "1760 S Rainbow Boulevard\nWestside\nLas Vegas, NV 89146"}
{"city": "Las Vegas", "state": "NV", "longitude": -115.209205, "name": "Schlotzsky's Deli", "rating": 3.5, "cuisine": "sandwiches", "latitude": 36.158562, "id": "uEZWVN-ehk_XyDh0Dujh0w", "full_address": "5119 W Charleston Blvd\nWestside\nLas Vegas, NV 89146"}
{"city": "Las Vegas", "state": "NV", "longitude": -115.2248585, "name": "Tacos El Compita", "rating": 4.0, "cuisine": "mexican", "latitude": 36.1593157, "id": "uybZVwl43IwaKAeRqkb3Zg", "full_address": "6118 W Charleston Blvd\nWestside\nLas Vegas, NV 89146"}
{"city": "Las Vegas", "state": "NV", "longitude": -115.2125455, "name": "Gyro Time Restaurant", "rating": 3.5, "cuisine": "mediterranean", "latitude": 36.1589411, "id": "3YLo7L0_1_Hy9SIuDrDceg", "full_address": "5239 W Charleston Blvd\nWestside\nLas Vegas, NV 89146"}
{"city": "Las Vegas", "state": "NV", "longitude": -115.224994, "name": "Farm Basket", "rating": 3.5, "cuisine": "fast food", "latitude": 36.159529, "id": "4sTUCAAzenGzgG2w7ry1zQ", "full_address": "6148 W Charleston Blvd\nWestside\nLas Vegas, NV 89146"}
{"city": "Las Vegas", "state": "NV", "longitude": -115.243027433753, "name": "Panda Express", "rating": 3.5, "cuisine": "chinese", "latitude": 36.1492037773132, "id": "s84xnG8SvqI6EIjF3Za-UQ", "full_address": "1980 S Rainbow Blvd\n120\nWestside\nLas Vegas, NV 89146"}
{"city": "Las Vegas", "state": "NV", "longitude": -115.2266305, "name": "Nevada Chicken Cafe", "rating": 3.5, "cuisine": "barbeque", "latitude": 36.1437858, "id": "ubwHoadNnVfMB9dFV2uyTQ", "full_address": "6155 W Sahara Ave\nSte 1&3\nWestside\nLas Vegas, NV 89146"}
{"city": "Las Vegas", "state": "NV", "longitude": -115.2972674, "name": "Burger King", "rating": 2.5, "cuisine": "fast food", "latitude": 36.0942892, "id": "9zUwgCWOi3rDvyoeDdx5pg", "full_address": "5240 S Fort Apache Rd\nSpring Valley\nLas Vegas, NV 89148"}
{"city": "Las Vegas", "state": "NV", "longitude": -115.296933, "name": "The Lodge At Fort Apache", "rating": 3.0, "cuisine": "american (traditional)", "latitude": 36.0834649, "id": "X4G7Zr-7fOr1bBP4iiONuw", "full_address": "5790 S Fort Apache Rd\nSpring Valley\nLas Vegas, NV 89148"}
{"city": "Las Vegas", "state": "NV", "longitude": -115.2973438, "name": "Panera Bread", "rating": 4.0, "cuisine": "salad", "latitude": 36.0951537, "id": "ZygV0bo1lfQ1ZRnVc0Uwlw", "full_address": "5130 S Fort Apache Rd\nSpring Valley\nLas Vegas, NV 89148"}
{"city": "Las Vegas", "state": "NV", "longitude": -115.2973192, "name": "Panda Express", "rating": 4.0, "cuisine": "chinese", "latitude": 36.0952252, "id": "t02b8iqce8ZU4y6tpBQXSg", "full_address": "5130 S Fort Apache Rd\nSte 215\nSpring Valley\nLas Vegas, NV 89148"}
{"city": "Las Vegas", "state": "NV", "longitude": -115.2967344, "name": "Fazoli's 5268", "rating": 3.0, "cuisine": "italian", "latitude": 36.0936258, "id": "2gWBfd2t7ta7lBaNZPfX5Q", "full_address": "5260 S Fort Apache Rd\nSpring Valley\nLas Vegas, NV 89148"}
{"city": "Las Vegas", "state": "NV", "longitude": -115.1710333, "name": "The Range Steakhouse", "rating": 4.0, "cuisine": "steakhouses", "latitude": 36.1226679, "id": "8kmIIK2YE6Rcg3HaDVha3w", "full_address": "Harrahs Las Vegas\n3475 S Las Vegas Blvd\nThe Strip\nLas Vegas, NV 89152"}
{"city": "Las Vegas", "state": "NV", "longitude": -115.025472, "name": "Mandarin Express", "rating": 4.0, "cuisine": "chinese", "latitude": 36.19418, "id": "RKI9xvPSuI6mWXMjfdnjXw", "full_address": "6895 E Lake Mead Blvd\nSte A3\nSunrise\nLas Vegas, NV 89156"}
{"city": "Las Vegas", "state": "NV", "longitude": -115.040472, "name": "PT's", "rating": 3.5, "cuisine": "american (new)", "latitude": 36.195696, "id": "nV79jhp3QzgSwV49bRTxiA", "full_address": "6055 E Lake Mead Blvd\nSunrise\nLas Vegas, NV 89156"}
{"city": "Las Vegas", "state": "NV", "longitude": -115.0602426, "name": "Rubalcabas Taco Shop", "rating": 4.0, "cuisine": "mexican", "latitude": 36.1962128, "id": "wAu9-jVLS-ygIPr4t8iCEA", "full_address": "5185 E Lake Mead Blvd\nSunrise\nLas Vegas, NV 89156"}
{"city": "Las Vegas", "state": "NV", "longitude": -115.0404551, "name": "Mama Maria's Mexican Restaurant", "rating": 4.5, "cuisine": "mexican", "latitude": 36.1956384, "id": "JBtHmLIXJprdHV2xMa0KKQ", "full_address": "6055 E Lake Mead Blvd\nSunrise\nLas Vegas, NV 89156"}
{"city": "Las Vegas", "state": "NV", "longitude": -115.030222, "name": "Jack in the Box", "rating": 4.0, "cuisine": "fast food", "latitude": 36.195148, "id": "I2rMZ5t1WliK5PaGxakBUA", "full_address": "6515 E Lake Mead Blvd\nSunrise\nLas Vegas, NV 89156"}
{"city": "Las Vegas", "state": "NV", "longitude": -115.0502202, "name": "Timbers - Horizon Ridge", "rating": 3.5, "cuisine": "american (traditional)", "latitude": 36.0224814, "id": "htsJHl2YcqwPfIbQkXrXrg", "full_address": "1450 W Horizon Ridge Pkwy\nLas Vegas, NV 89156"}
{"city": "Las Vegas", "state": "NV", "longitude": -115.243923, "name": "McDonald's", "rating": 2.0, "cuisine": "fast food", "latitude": 36.021687, "id": "tJvUgjY7dJhCunOC10tKpg", "full_address": "6915 Blue Diamond Rd\nSouthwest\nLas Vegas, NV 89178"}
{"city": "Las Vegas", "state": "NV", "longitude": -115.1278021, "name": "Seoul Market", "rating": 3.5, "cuisine": "korean", "latitude": 36.1006803, "id": "2X79qKO11V2ALh32WtOIxA", "full_address": "1801 E Tropicana Ave\nSte 12\nEastside\nLas Vegas, NV 89119"}
{"city": "Las Vegas", "state": "NV", "longitude": -115.14486, "name": "Applebee's Neighborhood Grill & Bar", "rating": 2.0, "cuisine": "american (new)", "latitude": 36.057671, "id": "smoGuW2a2Nume83mB3JJSw", "full_address": "820 E Warm Springs Rd\nSoutheast\nLas Vegas, NV 89119"}
{"city": "Las Vegas", "state": "NV", "longitude": -115.259744, "name": "Papa John's Pizza", "rating": 3.5, "cuisine": "pizza", "latitude": 36.1670663, "id": "aX3dNl6iDh4FaSw7-ipvQw", "full_address": "450 S Buffalo Dr\nWestside\nLas Vegas, NV 89145"}
{"city": "Las Vegas", "state": "NV", "longitude": -115.138204, "name": "Pump N Snack", "rating": 3.0, "cuisine": "fast food", "latitude": 36.172375, "id": "yRnl7MxYk1z18UW-g18clA", "full_address": "329 Las Vegas Blvd N\nDowntown\nLas Vegas, NV 89101"}
{"city": "Las Vegas", "state": "NV", "longitude": -115.1455849, "name": "Aloha Specialties Restaurant", "rating": 4.0, "cuisine": "hawaiian", "latitude": 36.1727435, "id": "vvur3WRgdgnhYoMUXMZZCA", "full_address": "12 E Ogden Ave\nDowntown\nLas Vegas, NV 89101"}
{"city": "Las Vegas", "state": "NV", "longitude": -115.144061, "name": "Binion's Hotel & Casino", "rating": 3.5, "cuisine": "american (new)", "latitude": 36.171235, "id": "Q5pTGQKEhxgit1fwgrHEbg", "full_address": "128 Fremont St\nDowntown\nLas Vegas, NV 89101"}
{"city": "Las Vegas", "state": "NV", "longitude": -115.1478836, "name": "Chicago Joes", "rating": 3.5, "cuisine": "italian", "latitude": 36.1609974, "id": "CM4LY-sjD0Q9HivGTFHdoA", "full_address": "820 S 4th St\nDowntown\nLas Vegas, NV 89101"}
{"city": "Las Vegas", "state": "NV", "longitude": -115.1444757, "name": "Strip Sandwich Shop", "rating": 3.0, "cuisine": "delis", "latitude": 36.1631791, "id": "JrF5GbCfN-KG9zl_IwNf0w", "full_address": "603 Las Vegas Blvd S\nDowntown\nLas Vegas, NV 89101"}
{"city": "Las Vegas", "state": "NV", "longitude": -115.147258, "name": "Dona Maria Tamales Restaurant", "rating": 3.5, "cuisine": "mexican", "latitude": 36.1594218, "id": "XC9tnUvXARu6XjRxO6u8DQ", "full_address": "910 Las Vegas Blvd S\nDowntown\nLas Vegas, NV 89101"}
{"city": "Las Vegas", "state": "NV", "longitude": -115.1160157, "name": "Mariscos El Mariachi", "rating": 3.0, "cuisine": "mexican", "latitude": 36.1723561, "id": "TS7WJefIj-Yzmjw0A81UWA", "full_address": "552 N Eastern Avenue\nLas Vegas, NV 89101"}
{"city": "Las Vegas", "state": "NV", "longitude": -115.1513417, "name": "El Sombrero Cafe", "rating": 3.5, "cuisine": "mexican", "latitude": 36.162903, "id": "wqOSESjr7ioLSAUOzzhqoQ", "full_address": "807 S Main St\nDowntown\nLas Vegas, NV 89101"}
{"city": "Las Vegas", "state": "NV", "longitude": -115.1442646, "name": "El Gaucho Lucas Cafe", "rating": 3.5, "cuisine": "breakfast & brunch", "latitude": 36.1679528, "id": "zRDru1Ew3aSZHMB99iv-bw", "full_address": "231 S 3rd St\nSte 110\nDowntown\nLas Vegas, NV 89101"}
{"city": "Las Vegas", "state": "NV", "longitude": -115.1405453, "name": "Uncle Joe's Pizza", "rating": 4.0, "cuisine": "pizza", "latitude": 36.1691679, "id": "s8NoNszuW8_CSFQjLApRuQ", "full_address": "505 Fremont St\nDowntown\nLas Vegas, NV 89101"}
{"city": "Las Vegas", "state": "NV", "longitude": -115.14082, "name": "Salvadoreno Restaurant", "rating": 3.5, "cuisine": "latin american", "latitude": 36.179408, "id": "7kSj36mgMGaqAlRJcjexFg", "full_address": "720 N Main St\nLas Vegas, NV 89101"}
{"city": "Las Vegas", "state": "NV", "longitude": -115.142535036121, "name": "Hugo's Cellar", "rating": 4.5, "cuisine": "american (traditional)", "latitude": 36.1695017334781, "id": "foDMwBRGJvKw791v0AT7OA", "full_address": "Four Queens Hotel and Casino\n202 Fremont St\nDowntown\nLas Vegas, NV 89101"}
{"city": "Las Vegas", "state": "NV", "longitude": -115.141552, "name": "Andre's", "rating": 4.0, "cuisine": "french", "latitude": 36.164944, "id": "a3HmtiW3WzUvKxWy9Fezkg", "full_address": "401 S 6th Street\nDowntown\nLas Vegas, NV 89101"}
{"city": "Las Vegas", "state": "NV", "longitude": -115.1435262, "name": "Tony Roma's", "rating": 2.0, "cuisine": "american (traditional)", "latitude": 36.1707639, "id": "CfdCsVkzzM3uJKGRzA0ufA", "full_address": "200 E Fremont St\nDowntown\nLas Vegas, NV 89101"}
{"city": "Las Vegas", "state": "NV", "longitude": -115.1435262, "name": "Second Street Grill", "rating": 3.5, "cuisine": "american (new)", "latitude": 36.1707639, "id": "kE7hkm4gn8dHvGFwqy6foQ", "full_address": "200 Fremont St\nDowntown\nLas Vegas, NV 89101"}
{"city": "Las Vegas", "state": "NV", "longitude": -115.123672485352, "name": "Carson Street Cafe", "rating": 3.0, "cuisine": "american (traditional)", "latitude": 36.1686453779591, "id": "QLuWutuU6jHOGZgUWBWQQg", "full_address": "Golden Nugget Las Vegas\n129 Fremont St\nLas Vegas, NV 89101"}
{"city": "Las Vegas", "state": "NV", "longitude": -115.145849, "name": "La Bayou Casino", "rating": 3.5, "cuisine": "american (new)", "latitude": 36.17115, "id": "15JT2xhzP_R96mT6rK882A", "full_address": "15 Fremont St\nDowntown\nLas Vegas, NV 89101"}
{"city": "Las Vegas", "state": "NV", "longitude": -115.1455, "name": "Las Vegas Jerkys", "rating": 4.5, "cuisine": "hawaiian", "latitude": 36.172231, "id": "NI6HbJtkRSwzcaSxMaSSwg", "full_address": "Inside Las Vegas Club Hotel & Casino\n18 E Fremont St\nDowntown\nLas Vegas, NV 89101"}
{"city": "Las Vegas", "state": "NV", "longitude": -115.145109871841, "name": "Garden Court Buffet", "rating": 3.5, "cuisine": "buffets", "latitude": 36.1740973156079, "id": "cMBZ46gNJPYY7zkxDb1piw", "full_address": "Main Street Station\n200 N Main St\nLas Vegas, NV 89101"}
{"city": "Las Vegas", "state": "NV", "longitude": -115.0461821, "name": "Cook On Wok Chinese Cuisine", "rating": 2.5, "cuisine": "chinese", "latitude": 36.055507, "id": "tcSgN0K3KhgVSSmHOLSWjQ", "full_address": "390 N Stephanie\nLas Vegas, NV 89101"}
{"city": "Las Vegas", "state": "NV", "longitude": -115.1390624, "name": "Mamacita's Restaurant", "rating": 3.0, "cuisine": "mexican", "latitude": 36.1684442, "id": "uAs3NRyyK9n89RjdXMH83Q", "full_address": "611 Fremont St\nDowntown\nLas Vegas, NV 89101"}
{"city": "Las Vegas", "state": "NV", "longitude": -115.141972, "name": "Piccadilly Pizza Fremont", "rating": 2.5, "cuisine": "pizza", "latitude": 36.170125, "id": "qjTsleuff7mJHp2qMVGMwA", "full_address": "322 Fremont St\nDowntown\nLas Vegas, NV 89101"}
{"city": "Las Vegas", "state": "NV", "longitude": -115.1149347, "name": "El Tenampa", "rating": 3.0, "cuisine": "mexican", "latitude": 36.1720928, "id": "Du3ESDGEGz65P3i6CnhAQA", "full_address": "556 N Eastern Avenue\nLas Vegas, NV 89101"}
{"city": "Las Vegas", "state": "NV", "longitude": -115.1167343, "name": "Los Molcajetes", "rating": 4.0, "cuisine": "mexican", "latitude": 36.1879301, "id": "e9TeHrdVJe-NaAaEXWapfQ", "full_address": "1553 N Eastern Ave\nLas Vegas, NV 89101"}
{"city": "Las Vegas", "state": "NV", "longitude": -115.116626, "name": "La Palapa", "rating": 4.5, "cuisine": "mexican", "latitude": 36.1871809, "id": "NE4Q42OVJdlibncRXtJXvw", "full_address": "1515 N Eastern Ave\nLas Vegas, NV 89101"}
{"city": "Las Vegas", "state": "NV", "longitude": -115.116566, "name": "Roberto's Taco Shop", "rating": 3.0, "cuisine": "mexican", "latitude": 36.186453, "id": "rDzvwiusMr5MMZxXo1GfMw", "full_address": "1414 N Eastern Ave\nLas Vegas, NV 89101"}
{"city": "Las Vegas", "state": "NV", "longitude": -115.2250385, "name": "Subway", "rating": 4.0, "cuisine": "sandwiches", "latitude": 36.1144231, "id": "TN3FpaIIX9j8EOydMvYOvw", "full_address": "6105 W Flamingo Rd\nLas Vegas, NV 89103"}
{"city": "Las Vegas", "state": "NV", "longitude": -115.223238, "name": "Del Taco", "rating": 4.0, "cuisine": "mexican", "latitude": 36.099621, "id": "c35VyrGF38BHVjtMxA-zHw", "full_address": "5955 W Tropicana Ave\nLas Vegas, NV 89103"}
{"city": "Las Vegas", "state": "NV", "longitude": -115.207512, "name": "Pho Huong Saigon", "rating": 2.0, "cuisine": "vietnamese", "latitude": 36.123589, "id": "QW22Xgl6_VEtP-YmUAw3Wg", "full_address": "3650 S Decatur Blvd\nChinatown\nLas Vegas, NV 89103"}
{"city": "Las Vegas", "state": "NV", "longitude": -115.224125, "name": "Taco Bell", "rating": 4.0, "cuisine": "tex-mex", "latitude": 36.099964, "id": "j_VWgqq3k5kEhOUK0wk2Iw", "full_address": "6010 W. Tropicana\nLas Vegas, NV 89103"}
{"city": "Las Vegas", "state": "NV", "longitude": -115.22466, "name": "Red Shrimp Company", "rating": 3.0, "cuisine": "chinese", "latitude": 36.1153511, "id": "7VDrYNPhDKFURZbK4MRi8w", "full_address": "4060 S Jones Blvd\nLas Vegas, NV 89103"}
{"city": "Las Vegas", "state": "NV", "longitude": -115.22429, "name": "My Buddy's Greek Cafe", "rating": 4.5, "cuisine": "cafes", "latitude": 36.122985, "id": "bj9tSJyT-v51KVekGOG77A", "full_address": "3650 S Jones Blvd\nSte 4\nChinatown\nLas Vegas, NV 89103"}
{"city": "Las Vegas", "state": "NV", "longitude": -115.244707, "name": "Little Caesars Pizza", "rating": 2.0, "cuisine": "pizza", "latitude": 36.1005777, "id": "XvULjGguZSsuwRfQLcbdfQ", "full_address": "4825 S Rainbow Blvd\nSte 202\nSpring Valley\nLas Vegas, NV 89103"}
{"city": "Las Vegas", "state": "NV", "longitude": -115.2412266, "name": "Tasty Island Carribean Food & Deli", "rating": 3.5, "cuisine": "caribbean", "latitude": 36.1148958, "id": "93zReBgrXHZxsONq6JtEzQ", "full_address": "6820 W Flamingo Rd\nSte H\nLas Vegas, NV 89103"}
{"city": "Las Vegas", "state": "NV", "longitude": -115.2243599, "name": "Thai BBQ", "rating": 3.5, "cuisine": "thai", "latitude": 36.1129299, "id": "5h3pG3cq0eNNErp27V6zRg", "full_address": "4180 S Jones Blvd\nLas Vegas, NV 89103"}
{"city": "Las Vegas", "state": "NV", "longitude": -115.206845, "name": "Byblos Cafe & Pastries", "rating": 4.5, "cuisine": "middle eastern", "latitude": 36.114821, "id": "ll8SKTQKqajLeLi64-93Qw", "full_address": "4825 W Flamingo Rd\nLas Vegas, NV 89103"}
{"city": "Las Vegas", "state": "NV", "longitude": -115.207512, "name": "Milano's Pizza", "rating": 2.5, "cuisine": "pizza", "latitude": 36.123589, "id": "gV2v2jr4IEfYBTNe3TwCrg", "full_address": "3650 S Decatur Blvd\nSte 26\nChinatown\nLas Vegas, NV 89103"}
{"city": "Las Vegas", "state": "NV", "longitude": -115.209737, "name": "Capriotti's", "rating": 4.0, "cuisine": "sandwiches", "latitude": 36.114935, "id": "RbMQbzxXAbrcABVxjyr87w", "full_address": "4983 W Flamingo Rd\nSte D\nLas Vegas, NV 89103"}
{"city": "Las Vegas", "state": "NV", "longitude": -115.242659, "name": "Jack In the Box", "rating": 3.5, "cuisine": "fast food", "latitude": 36.11491, "id": "RquV0ktcUiQkLP6o1ojJbQ", "full_address": "4040 S Rainbow Blvd\nLas Vegas, NV 89103"}
{"city": "Las Vegas", "state": "NV", "longitude": -115.209737, "name": "Josette's Bistro", "rating": 4.0, "cuisine": "french", "latitude": 36.114935, "id": "x3mVrFxyjNXQ7JNqGpw4qQ", "full_address": "4983 W Flamingo Rd\nLas Vegas, NV 89103"}
{"city": "Las Vegas", "state": "NV", "longitude": -115.21134, "name": "The Emergency Room Lounge", "rating": 2.5, "cuisine": "", "latitude": 36.11274, "id": "C2hLJZTGPSWkNKLMUvMjxg", "full_address": "3550 S Decatur Blvd\nLas Vegas, NV 89103"}
{"city": "Las Vegas", "state": "NV", "longitude": -115.1904588, "name": "Kung Fu Thai & Chinese Restaurant", "rating": 3.5, "cuisine": "chinese", "latitude": 36.1261484, "id": "2Dbg35sPSGmZGcbBVNa9dA", "full_address": "3505 S Valley View Blvd\nChinatown\nLas Vegas, NV 89103"}
{"city": "Las Vegas", "state": "NV", "longitude": -115.2056, "name": "El Taco Feliz", "rating": 4.0, "cuisine": "mexican", "latitude": 36.115074, "id": "E-vpjU-T7ssWsswziJkJFA", "full_address": "4755 W Flamingo Rd\nLas Vegas, NV 89103"}
{"city": "Las Vegas", "state": "NV", "longitude": -115.204924, "name": "McMullan's Irish Pub", "rating": 4.0, "cuisine": "irish", "latitude": 36.101539, "id": "8Nsh8u0zHYegI6XT1L39Lg", "full_address": "4650 W Tropicana Ave\nLas Vegas, NV 89103"}
{"city": "Las Vegas", "state": "NV", "longitude": -115.208503563229, "name": "Los Compadres Meat Market", "rating": 4.0, "cuisine": "mexican", "latitude": 36.1229614451793, "id": "SrW86qZWfPe5za2e_30dWA", "full_address": "3655 S Decatur Blvd\nSte 17\nChinatown\nLas Vegas, NV 89103"}
{"city": "Las Vegas", "state": "NV", "longitude": -115.206845, "name": "Eliseevsky Restaurant", "rating": 4.5, "cuisine": "russian", "latitude": 36.114821, "id": "0yyEeK2heCFAwI8vqp-d9Q", "full_address": "4825 W Flamingo Rd\nLas Vegas, NV 89103"}
{"city": "Las Vegas", "state": "NV", "longitude": -115.227134, "name": "Minuto's Italian Deli", "rating": 4.5, "cuisine": "delis", "latitude": 36.0999899, "id": "ziMWTTne8l4UnQs2vXfjIA", "full_address": "6160 W Tropicana Ave\nLas Vegas, NV 89103"}
{"city": "Las Vegas", "state": "NV", "longitude": -115.2030909, "name": "Ruth's Chris Steak House", "rating": 3.5, "cuisine": "steakhouses", "latitude": 36.1153881, "id": "pwjg5ZKA8JOswwW_INw9OA", "full_address": "4561 W Flamingo Rd\nLas Vegas, NV 89103"}
{"city": "Las Vegas", "state": "NV", "longitude": -115.2411808, "name": "Las Islitas", "rating": 2.5, "cuisine": "mexican", "latitude": 36.1142513, "id": "XoWQlJPUTwxqF5QeN4w1vQ", "full_address": "6831 W Flamingo Rd\nSte 406\nLas Vegas, NV 89103"}
{"city": "Las Vegas", "state": "NV", "longitude": -115.2019773, "name": "Wendys", "rating": 2.5, "cuisine": "fast food", "latitude": 36.1151551, "id": "Tmc8WOf1an_X6qnCGxM02Q", "full_address": "4507 W Flamingo Rd\nLas Vegas, NV 89103"}
{"city": "Las Vegas", "state": "NV", "longitude": -115.2011958, "name": "Pasta Mia West", "rating": 4.0, "cuisine": "italian", "latitude": 36.1153936, "id": "3UdZcZn_DGPtjk5GSZtLNg", "full_address": "4455 W Flamingo Rd\nLas Vegas, NV 89103"}
